[{"sap_id":"BS0101","name":"KLINIK - KF.0065","branch_id":42,"store_type":"","operational_date":"2003-01-01","address":"","zip_id":1,"latitude":0,"longitude":0,"phone":0},{"sap_id":"BS0301","name":"KF.0124","branch_id":42,"store_type":"","operational_date":"2003-01-01","address":"","zip_id":1,"latitude":0,"longitude":0,"phone":0},{"sap_id":"BS0401","name":"KLINIK - KF.0165 Pasuruan","branch_id":42,"store_type":"","operational_date":"2003-01-01","address":"","zip_id":1,"latitude":0,"longitude":0,"phone":0},{"sap_id":"BS0601","name":"KLINIK - KF.0261","branch_id":42,"store_type":"","operational_date":"2003-01-01","address":"","zip_id":1,"latitude":0,"longitude":0,"phone":0},{"sap_id":"BS07","name":"KF.0521 Taman Pondok Jati","branch_id":42,"store_type":"","operational_date":"2014-03-14","address":"","zip_id":1,"latitude":0,"longitude":0,"phone":0},{"sap_id":"BS1201","name":"KLINIK - KF.Nganjuk","branch_id":42,"store_type":"","operational_date":"2015-12-12","address":"","zip_id":1,"latitude":0,"longitude":0,"phone":0},{"sap_id":"BS14","name":"KF Damarsi","branch_id":42,"store_type":"","operational_date":"2016-11-16","address":"","zip_id":1,"latitude":0,"longitude":0,"phone":0},{"sap_id":"BS17","name":"KF. Kertosono","branch_id":42,"store_type":"","operational_date":"2017-06-01","address":"","zip_id":1,"latitude":0,"longitude":0,"phone":0},{"sap_id":"BS22","name":"KF Gedangan 2","branch_id":42,"store_type":"","operational_date":"2018-09-01","address":"","zip_id":1,"latitude":0,"longitude":0,"phone":0},{"sap_id":"BS28","name":"KF Basuni Mojokerto","branch_id":42,"store_type":"BASIC_HEALTH","operational_date":"2021-02-10","address":"","zip_id":1,"latitude":0,"longitude":0,"phone":0},{"sap_id":"CQ05","name":"KF Sungai Liat 2","branch_id":5,"store_type":"BASIC_HEALTH","operational_date":"2024-01-05","address":"","zip_id":1,"latitude":0,"longitude":0,"phone":0},{"sap_id":"CQ06","name":"KF Semabung Baru","branch_id":5,"store_type":"BASIC_HEALTH","operational_date":"2024-01-05","address":"","zip_id":1,"latitude":0,"longitude":0,"phone":0},{"sap_id":"CQ07","name":"KF Sijuk","branch_id":5,"store_type":"BASIC_HEALTH","operational_date":"2024-01-05","address":"","zip_id":1,"latitude":0,"longitude":0,"phone":0},{"sap_id":"CQ08","name":"KF Sriwijaya","branch_id":5,"store_type":"BASIC_HEALTH","operational_date":"2024-01-05","address":"","zip_id":1,"latitude":0,"longitude":0,"phone":0},{"sap_id":3101,"name":"UNIT BISNIS BANDA ACEH","branch_id":3,"store_type":"NONE","operational_date":"1950-01-01","address":"","zip_id":1,"latitude":0,"longitude":0,"phone":0},{"sap_id":3102,"name":"UNIT BISNIS BALIKPAPAN","branch_id":2,"store_type":"NONE","operational_date":"1950-01-01","address":"","zip_id":1,"latitude":0,"longitude":0,"phone":0},{"sap_id":3103,"name":"UNIT BISNIS BANDUNG","branch_id":4,"store_type":"","operational_date":"1950-01-01","address":"Jl. Cihampelas No. 7","zip_id":29310,"latitude":0,"longitude":0,"phone":"02284281458"},{"sap_id":3105,"name":"UNIT BISNIS TASIKMALAYA","branch_id":49,"store_type":"NONE","operational_date":"1950-01-01","address":"","zip_id":1,"latitude":0,"longitude":0,"phone":0},{"sap_id":3107,"name":"UNIT BISNIS BANJARMASIN","branch_id":6,"store_type":"NONE","operational_date":"1950-01-01","address":"","zip_id":1,"latitude":0,"longitude":0,"phone":0},{"sap_id":3110,"name":"UNIT BISNIS BEKASI","branch_id":8,"store_type":"NONE","operational_date":"1950-01-01","address":"","zip_id":1,"latitude":0,"longitude":0,"phone":0},{"sap_id":3111,"name":"UNIT BISNIS KARAWANG","branch_id":21,"store_type":"NONE","operational_date":"1950-01-01","address":"","zip_id":1,"latitude":0,"longitude":0,"phone":0},{"sap_id":3112,"name":"UNIT BISNIS BOGOR","branch_id":9,"store_type":"NONE","operational_date":"1950-01-01","address":"","zip_id":1,"latitude":0,"longitude":0,"phone":0},{"sap_id":3113,"name":"UNIT BISNIS DEPOK","branch_id":13,"store_type":"","operational_date":"1950-01-01","address":"JL. Nusnatara Raya No. 33 Depok","zip_id":26980,"latitude":0,"longitude":0,"phone":"02177802101"},{"sap_id":3114,"name":"UNIT BISNIS CIREBON","branch_id":11,"store_type":"NONE","operational_date":"1950-01-01","address":"","zip_id":1,"latitude":0,"longitude":0,"phone":0},{"sap_id":3115,"name":"UNIT BISNIS NUSADUA","branch_id":31,"store_type":"NONE","operational_date":"1950-01-01","address":"","zip_id":1,"latitude":0,"longitude":0,"phone":0},{"sap_id":3116,"name":"UNIT BISNIS DENPASAR","branch_id":12,"store_type":"NONE","operational_date":"1950-01-01","address":"","zip_id":1,"latitude":0,"longitude":0,"phone":0},{"sap_id":3117,"name":"UNIT BISNIS JAYA I","branch_id":17,"store_type":"NONE","operational_date":"1950-01-01","address":"","zip_id":1,"latitude":0,"longitude":0,"phone":0},{"sap_id":3118,"name":"UNIT BISNIS JAYA II","branch_id":18,"store_type":"","operational_date":"1950-01-01","address":"-","zip_id":25064,"latitude":0,"longitude":0,"phone":0},{"sap_id":3119,"name":"UNIT BISNIS JAYAPURA","branch_id":19,"store_type":"","operational_date":"1950-01-01","address":"jl kesehtan komp rsud dok 2 jayapura","zip_id":76053,"latitude":0,"longitude":0,"phone":0},{"sap_id":3120,"name":"UNIT BISNIS JEMBER","branch_id":20,"store_type":"","operational_date":"1950-01-01","address":"Jln. Gajah Mada 171 jember","zip_id":42473,"latitude":0,"longitude":0,"phone":"0331485424"},{"sap_id":3121,"name":"UNIT BISNIS KENDARI","branch_id":22,"store_type":"NONE","operational_date":"1950-01-01","address":"","zip_id":1,"latitude":0,"longitude":0,"phone":0},{"sap_id":3122,"name":"UNIT BISNIS KUPANG","branch_id":23,"store_type":"NONE","operational_date":"1950-01-01","address":"","zip_id":1,"latitude":0,"longitude":0,"phone":0},{"sap_id":3123,"name":"UNIT BISNIS LAMPUNG","branch_id":24,"store_type":"NONE","operational_date":"1950-01-01","address":"","zip_id":1,"latitude":0,"longitude":0,"phone":0},{"sap_id":3124,"name":"UNIT BISNIS MAKASSAR","branch_id":26,"store_type":"","operational_date":"1950-01-01","address":"-","zip_id":67264,"latitude":0,"longitude":0,"phone":0},{"sap_id":3125,"name":"UNIT BISNIS MALANG","branch_id":27,"store_type":"","operational_date":"1950-01-01","address":"malang","zip_id":43670,"latitude":0,"longitude":0,"phone":0},{"sap_id":3126,"name":"UNIT BISNIS GORONTALO","branch_id":14,"store_type":"NONE","operational_date":"1950-01-01","address":"","zip_id":1,"latitude":0,"longitude":0,"phone":0},{"sap_id":3127,"name":"UNIT BISNIS MANADO","branch_id":28,"store_type":"NONE","operational_date":"1950-01-01","address":"","zip_id":1,"latitude":0,"longitude":0,"phone":0},{"sap_id":3128,"name":"UNIT BISNIS TERNATE","branch_id":50,"store_type":"NONE","operational_date":"1950-01-01","address":"","zip_id":1,"latitude":0,"longitude":0,"phone":0},{"sap_id":3129,"name":"UNIT BISNIS MATARAM","branch_id":29,"store_type":"","operational_date":"1950-01-01","address":"Jl. Sriwijaya No.295","zip_id":51624,"latitude":0,"longitude":0,"phone":0},{"sap_id":3130,"name":"UNIT BISNIS MEDAN","branch_id":30,"store_type":"NONE","operational_date":"1950-01-01","address":"","zip_id":1,"latitude":0,"longitude":0,"phone":0},{"sap_id":3131,"name":"UNIT BISNIS PADANG","branch_id":32,"store_type":"NONE","operational_date":"1950-01-01","address":"","zip_id":1,"latitude":0,"longitude":0,"phone":0},{"sap_id":3132,"name":"UNIT BISNIS PALANGKARAYA","branch_id":33,"store_type":"NONE","operational_date":"1950-01-01","address":"","zip_id":1,"latitude":0,"longitude":0,"phone":0},{"sap_id":3133,"name":"UNIT BISNIS JAMBI","branch_id":16,"store_type":"NONE","operational_date":"1950-01-01","address":"","zip_id":1,"latitude":0,"longitude":0,"phone":0},{"sap_id":3134,"name":"UNIT BISNIS PALEMBANG","branch_id":34,"store_type":"NONE","operational_date":"1950-01-01","address":"","zip_id":1,"latitude":0,"longitude":0,"phone":0},{"sap_id":3135,"name":"UNIT BISNIS PALU","branch_id":35,"store_type":"","operational_date":"1950-01-01","address":"-","zip_id":64801,"latitude":0,"longitude":0,"phone":0},{"sap_id":3136,"name":"UNIT BISNIS PEKANBARU","branch_id":37,"store_type":"","operational_date":"1950-01-01","address":"JL. JENS SUDIRMAN NO.175","zip_id":14974,"latitude":0,"longitude":0,"phone":1500255},{"sap_id":3137,"name":"UNIT BISNIS PONTIANAK","branch_id":38,"store_type":"","operational_date":"1950-01-01","address":"JL. TANJUNG PURA NO. 419","zip_id":55250,"latitude":-0.036767,"longitude":109.346656,"phone":0},{"sap_id":3139,"name":"UNIT BISNIS SAMARINDA","branch_id":40,"store_type":"","operational_date":"1950-01-01","address":"Jl. Gerilya Ruko 1B/1C Rt.10, Kota Samarinda","zip_id":18680,"latitude":0,"longitude":0,"phone":0},{"sap_id":3140,"name":"UNIT BISNIS PEKALONGAN","branch_id":36,"store_type":"","operational_date":"1950-01-01","address":"Jl.Imam Bonjol No.32","zip_id":35836,"latitude":0,"longitude":0,"phone":"02854498966"},{"sap_id":3141,"name":"UNIT BISNIS SEMARANG","branch_id":41,"store_type":"NONE","operational_date":"1950-01-01","address":"","zip_id":1,"latitude":0,"longitude":0,"phone":0},{"sap_id":3142,"name":"UNIT BISNIS SURAKARTA","branch_id":46,"store_type":"NONE","operational_date":"1950-01-01","address":"","zip_id":1,"latitude":0,"longitude":0,"phone":0},{"sap_id":3143,"name":"UNIT BISNIS SORONG","branch_id":43,"store_type":"NONE","operational_date":"1950-01-01","address":"","zip_id":1,"latitude":0,"longitude":0,"phone":0},{"sap_id":3144,"name":"UNIT BISNIS GRESIK","branch_id":15,"store_type":"","operational_date":"1950-01-01","address":"Jl. Dr. Wahidin Sudirohusodo 788","zip_id":43155,"latitude":-7.167258,"longitude":112.600076,"phone":"0313986989"},{"sap_id":3145,"name":"UNIT BISNIS SIDOARJO","branch_id":42,"store_type":"NONE","operational_date":"1950-01-01","address":"","zip_id":1,"latitude":0,"longitude":0,"phone":0},{"sap_id":"BS1301","name":"Klinik KF Mojosari","branch_id":42,"store_type":"","operational_date":"1950-01-01","address":"","zip_id":1,"latitude":0,"longitude":0,"phone":0},{"sap_id":"BS2301","name":"Klinik KF Citra Medika","branch_id":42,"store_type":"","operational_date":"1950-01-01","address":"","zip_id":1,"latitude":0,"longitude":0,"phone":0},{"sap_id":3146,"name":"UNIT BISNIS SURABAYA","branch_id":45,"store_type":"NONE","operational_date":"1950-01-01","address":"","zip_id":1,"latitude":0,"longitude":0,"phone":0},{"sap_id":3147,"name":"UNIT BISNIS SUKABUMI","branch_id":44,"store_type":"NONE","operational_date":"1950-01-01","address":"","zip_id":1,"latitude":0,"longitude":0,"phone":0},{"sap_id":3148,"name":"UNIT BISNIS CILEGON","branch_id":10,"store_type":"NONE","operational_date":"1950-01-01","address":"","zip_id":1,"latitude":0,"longitude":0,"phone":0},{"sap_id":3149,"name":"UNIT BISNIS TANGERANG","branch_id":47,"store_type":"NONE","operational_date":"1950-01-01","address":"","zip_id":1,"latitude":0,"longitude":0,"phone":0},{"sap_id":3150,"name":"UNIT BISNIS YOGYA","branch_id":51,"store_type":"NONE","operational_date":"1950-01-01","address":"","zip_id":1,"latitude":0,"longitude":0,"phone":0},{"sap_id":3168,"name":"UNIT BISNIS AMBON","branch_id":1,"store_type":"NONE","operational_date":"1950-01-01","address":"","zip_id":1,"latitude":0,"longitude":0,"phone":0},{"sap_id":3169,"name":"UNIT BISNIS BANGKA BELITUNG","branch_id":5,"store_type":"NONE","operational_date":"1950-01-01","address":"","zip_id":1,"latitude":0,"longitude":0,"phone":0},{"sap_id":3170,"name":"Unit Bisnis Purwokerto","branch_id":39,"store_type":"","operational_date":"1950-01-01","address":"","zip_id":1,"latitude":0,"longitude":0,"phone":0},{"sap_id":3171,"name":"UNIT BISNIS MADURA","branch_id":25,"store_type":"NONE","operational_date":"1950-01-01","address":"","zip_id":1,"latitude":0,"longitude":0,"phone":0},{"sap_id":"BF07","name":"KF A Yani (KF.0020)","branch_id":33,"store_type":"BASIC_HEALTH","operational_date":"1987-01-20","address":"Jl. A Yani No 63 B , Pahandut, Kota Palangkaraya","zip_id":57755,"latitude":-2.210527,"longitude":113.92248,"phone":"081345536130"},{"sap_id":"BG05","name":"KF.Pel027 RSUD dr. Mataher","branch_id":16,"store_type":"MEDICAL","operational_date":"1989-09-01","address":"Jl. Let.Jend. Suprapto No.31","zip_id":16837,"latitude":-1.602014,"longitude":103.579903,"phone":"081233189499"},{"sap_id":"BF01","name":"KF.0069","branch_id":33,"store_type":"BASIC_HEALTH","operational_date":"1993-01-05","address":"Jl. Tambun Bungai No. 19","zip_id":57755,"latitude":-2.209696,"longitude":113.923551,"phone":"081110678102"},{"sap_id":"BF03","name":"KF.0112","branch_id":33,"store_type":"MEDICAL","operational_date":"1997-01-01","address":"Jl. Diponegoro No. 8","zip_id":57755,"latitude":-2.214683,"longitude":113.922038,"phone":"085346873241"},{"sap_id":"BF04","name":"KF.0156","branch_id":33,"store_type":"BASIC_HEALTH","operational_date":"1998-03-15","address":"Jl. Yetro Sinseng No. 1","zip_id":57756,"latitude":-0.962089,"longitude":114.889719,"phone":"081110678105"},{"sap_id":"BG01","name":"KF.0117","branch_id":16,"store_type":"BASIC_HEALTH","operational_date":"1999-02-01","address":"Jl. Abunjani No.78","zip_id":10760,"latitude":-1.616497,"longitude":103.59261,"phone":"082289669996"},{"sap_id":"BG03","name":"KF.0244","branch_id":16,"store_type":"HEALTH_AND_CARE","operational_date":"2002-09-01","address":"Jl. H. Adam Malik No. 189RT. 23Beringin - Jambi - 36138","zip_id":16894,"latitude":-1.6324787,"longitude":103.624243,"phone":"082373475672"},{"sap_id":"AA01","name":"KF.0037 Diponegoro","branch_id":3,"store_type":"BASIC_HEALTH","operational_date":"2003-01-01","address":"Jl. Diponegoro No. 8","zip_id":72840,"latitude":5.553818,"longitude":95.3194918,"phone":"081362614585"},{"sap_id":"AA02","name":"KF.0060 Arun","branch_id":3,"store_type":"MEDICAL","operational_date":"2003-01-01","address":"Jl. Merdeka No. 47 B - C","zip_id":60455,"latitude":5.18087,"longitude":97.143713,"phone":"081110678321"},{"sap_id":"AA03","name":"KF.0081 Tm Zein","branch_id":3,"store_type":"HEALTH_AND_CARE","operational_date":"2003-01-01","address":"Jl. T.M. Zein No. 1 E","zip_id":1740,"latitude":4.470177,"longitude":97.970868,"phone":"081110678299"},{"sap_id":"AA04","name":"KF.0092 Peunyoung","branch_id":3,"store_type":"MEDICAL","operational_date":"2003-01-01","address":"Jl. Chairil Anwar No. 13","zip_id":4792,"latitude":5.557803,"longitude":95.321015,"phone":"082165895472"},{"sap_id":"AA05","name":"KF.0161 Seutui","branch_id":3,"store_type":"BASIC_HEALTH","operational_date":"2003-01-01","address":"Jl. Teuku Umar No. 201","zip_id":5548,"latitude":5.54077,"longitude":95.310245,"phone":"081110678324"},{"sap_id":"AA06","name":"KF.0292 Daud Beureuh","branch_id":3,"store_type":"MEDICAL","operational_date":"2003-01-01","address":"Jl. Pocut Baren No 37 C-D Kota Banda Aceh","zip_id":2501,"latitude":5.562291,"longitude":95.326384,"phone":"082275582005"},{"sap_id":"AA10","name":"KF.Pel006 RSUD Zainul Abidin","branch_id":3,"store_type":"MEDICAL","operational_date":"2003-01-01","address":"Kompleks New RSUD, Jl. Tgk Daud Beureueh No.108","zip_id":516,"latitude":5.563397,"longitude":95.338285,"phone":"081356861166"},{"sap_id":"AB03","name":"KF.0136","branch_id":2,"store_type":"BASIC_HEALTH","operational_date":"2003-01-01","address":"Jl.MT. HARYONO RT.24","zip_id":60928,"latitude":-1.267408,"longitude":116.857572,"phone":"081110678431"},{"sap_id":"AC01","name":"KF.0010","branch_id":4,"store_type":"BASIC_HEALTH","operational_date":"2003-01-01","address":"Jl. Braga No.6","zip_id":25688,"latitude":-6.92048416,"longitude":107.6,"phone":"08112157639"},{"sap_id":"AC02","name":"KF.0011","branch_id":4,"store_type":"BASIC_HEALTH","operational_date":"2003-01-01","address":"Jl. Supratman No.72","zip_id":26163,"latitude":-6.904162,"longitude":107.628706,"phone":"08112157640"},{"sap_id":"AC03","name":"KF.0012","branch_id":4,"store_type":"SUPER_STORE","operational_date":"2003-01-01","address":"Jl. Merdeka No. 6","zip_id":26856,"latitude":-6.907161,"longitude":107.6109,"phone":"08112157641"},{"sap_id":"AC04","name":"KF.0014","branch_id":4,"store_type":"SUPER_STORE","operational_date":"2003-01-01","address":"Jl. Cihampelas No.7","zip_id":29346,"latitude":-6.905765,"longitude":107.604086,"phone":"08112157642"},{"sap_id":"AC05","name":"KF.0043","branch_id":4,"store_type":"SUPER_STORE","operational_date":"2003-01-01","address":"Jl. Buah Batu No.259","zip_id":31013,"latitude":-6.945697,"longitude":107.631542,"phone":"08112157643"},{"sap_id":"AC06","name":"KF.0051","branch_id":4,"store_type":"SUPER_STORE","operational_date":"2003-01-01","address":"Jl. Ir H. Juanda No.69 Bandung","zip_id":47663,"latitude":-6.90047,"longitude":107.612158,"phone":"08112157644"},{"sap_id":"AC07","name":"KF.0058","branch_id":4,"store_type":"BASIC_HEALTH","operational_date":"2003-01-01","address":"Jl. Pasir kaliki No.235","zip_id":30158,"latitude":-6.897407,"longitude":107.5966668,"phone":"08112157645"},{"sap_id":"AC08","name":"KF.0127","branch_id":4,"store_type":"SUPER_STORE","operational_date":"2003-01-01","address":"Jl. Raya Ujung Berung No.40","zip_id":29044,"latitude":-6.914145,"longitude":107.697997,"phone":"08112157646"},{"sap_id":"AC09","name":"KF.0204","branch_id":4,"store_type":"BASIC_HEALTH","operational_date":"2003-01-01","address":"Jl. Abdul Rachmansaleh No. 39","zip_id":27316,"latitude":-6.907549,"longitude":107.584005,"phone":"08112157647"},{"sap_id":"AC10","name":"KF.0240","branch_id":4,"store_type":"BASIC_HEALTH","operational_date":"2003-01-01","address":"Jl. Rancabolang No.69","zip_id":28471,"latitude":-6.941234,"longitude":107.663586,"phone":"08112157648"},{"sap_id":"AC37","name":"Apotek KF 167","branch_id":4,"store_type":"BASIC_HEALTH","operational_date":"2003-01-01","address":"Jl. Raya Tagog No.515 Kota Cimahi","zip_id":27746,"latitude":-6.875343,"longitude":107.544765,"phone":"08112157672"},{"sap_id":"AE01","name":"KF.0195","branch_id":49,"store_type":"HEALTH_AND_CARE","operational_date":"2003-01-01","address":"Jl. Sutisna senjaya No.26","zip_id":27022,"latitude":-7.327254,"longitude":108.225698,"phone":"081110678151"},{"sap_id":"AG01","name":"KF.0061","branch_id":6,"store_type":"MEDICAL","operational_date":"2003-01-01","address":"Jl. Veteran No. 51","zip_id":51520,"latitude":-3.3199127,"longitude":114.5967686,"phone":"08115137810"},{"sap_id":"AG02","name":"KF.0120","branch_id":6,"store_type":"HEALTH_AND_CARE","operational_date":"2003-01-01","address":"Jl. A. Yani Km 3,5 No. 134","zip_id":59527,"latitude":-3.32852,"longitude":114.60941,"phone":"08115137811"},{"sap_id":"AG03","name":"KF.0188","branch_id":6,"store_type":"BASIC_HEALTH","operational_date":"2003-01-01","address":"Jl. S. Parman No. 42","zip_id":58850,"latitude":-3.313134,"longitude":114.589776,"phone":"08115137812"},{"sap_id":"AG04","name":"KF.0217","branch_id":6,"store_type":"MEDICAL","operational_date":"2003-01-01","address":"Jl. A. Yani Km 2 No. 136","zip_id":15009,"latitude":-3.323809,"longitude":114.601876,"phone":"08115137813"},{"sap_id":"AG05","name":"KF.0246 CEMPAKA","branch_id":6,"store_type":"BASIC_HEALTH","operational_date":"2003-01-01","address":"Jl. Cempaka Besar No. 18","zip_id":59794,"latitude":-3.32346,"longitude":114.58517,"phone":"08115137814"},{"sap_id":"AG06","name":"KF.0265","branch_id":6,"store_type":"HEALTH_AND_CARE","operational_date":"2003-01-01","address":"Jl. A. Yani No. 49","zip_id":58321,"latitude":-3.019471,"longitude":114.389732,"phone":"081110678364"},{"sap_id":"AG19","name":"ApotekKF.0111","branch_id":6,"store_type":"MEDICAL","operational_date":"2003-01-01","address":"Jl.AYaniTimurNo.10Km34","zip_id":59576,"latitude":-3.442511,"longitude":114.827132,"phone":"08115137825"},{"sap_id":"AG20","name":"ApotekKF.0179Martapura","branch_id":6,"store_type":"BASIC_HEALTH","operational_date":"2003-01-01","address":"Jl.AYaniKm39,5No.47","zip_id":60630,"latitude":-3.415487,"longitude":114.850115,"phone":"08115137826"},{"sap_id":"AH01","name":"KF.0059 Nagoya","branch_id":7,"store_type":"SUPER_STORE","operational_date":"2003-01-01","address":"Jl. Imam Bonjol Lubuk Baja","zip_id":24716,"latitude":1.143176,"longitude":104.01455,"phone":"081110678377"},{"sap_id":"AH02","name":"KF.0091","branch_id":7,"store_type":"BASIC_HEALTH","operational_date":"2003-01-01","address":"Jl. R. Patah No.6","zip_id":24603,"latitude":1.13732,"longitude":104.016155,"phone":"081110678374"},{"sap_id":"AH03","name":"KF.0100","branch_id":7,"store_type":"BASIC_HEALTH","operational_date":"2003-01-01","address":"Jl. Seraya - Komp. Ruko Abaditama Blok A-10P","zip_id":24672,"latitude":1.14864,"longitude":104.017818,"phone":"081110678404"},{"sap_id":"AH04","name":"KF.0128","branch_id":7,"store_type":"BASIC_HEALTH","operational_date":"2003-01-01","address":"Jl. Ir. Sutami Komp. Pertokoan Wijaya Blok A No.01-02 Sei Harapan","zip_id":15033,"latitude":1.108624,"longitude":103.952001,"phone":"081250300760"},{"sap_id":"AH05","name":"KF.0137","branch_id":7,"store_type":"BASIC_HEALTH","operational_date":"2003-01-01","address":"Jl. Sambu Komplek Sagulung Mas Indah Blok B No.3 Batu Aji","zip_id":24825,"latitude":1.0482,"longitude":103.951704,"phone":"081110678502"},{"sap_id":"AH06","name":"KF.0218","branch_id":7,"store_type":"MEDICAL","operational_date":"2003-01-01","address":"Jl. Laksamana Bintan Komp. Taman Santosa Indah Blok B -18 Sei Panas","zip_id":24891,"latitude":1.1382395,"longitude":104.0271948,"phone":"082283539837"},{"sap_id":"AH07","name":"KF.0223","branch_id":7,"store_type":"HEALTH_AND_CARE","operational_date":"2003-01-01","address":"Jl. Gajah Mada Tiban Indah Lestari Blok A No.3 Tiban","zip_id":24971,"latitude":1.113014,"longitude":103.983731,"phone":"082113613345"},{"sap_id":"AH08","name":"KF.0224","branch_id":7,"store_type":"BASIC_HEALTH","operational_date":"2003-01-01","address":"Jl. R Suprapto Komp. Muka Kuning Indah II Blok B2 No. 03 Aviari","zip_id":24625,"latitude":1.049243,"longitude":103.969523,"phone":"085173257697"},{"sap_id":"AH09","name":"KF.0230","branch_id":7,"store_type":"BASIC_HEALTH","operational_date":"2003-01-01","address":"Jl. Jendral A. Yani Panbil Mall Blok A No.5 Muka Kuning","zip_id":24716,"latitude":1.073376,"longitude":104.024864,"phone":"081110678573"},{"sap_id":"AH10","name":"KF.0269","branch_id":7,"store_type":"SUPER_STORE","operational_date":"2003-01-01","address":"Jl. Jend. Sudirman Batam Center","zip_id":24958,"latitude":1.131914,"longitude":104.049333,"phone":"081110678462"},{"sap_id":"AI01","name":"KF.0031 TPI","branch_id":48,"store_type":"SUPER_STORE","operational_date":"2003-01-01","address":"Jl. Bintan No.656 - 658","zip_id":24922,"latitude":0.929426,"longitude":104.441483,"phone":"08117005036"},{"sap_id":"AI02","name":"KF.0109 TPI","branch_id":48,"store_type":"BASIC_HEALTH","operational_date":"2003-01-01","address":"Jl. MT. Haryono Km. 3,5","zip_id":24935,"latitude":0.919832,"longitude":104.463818,"phone":"08117005038"},{"sap_id":"AI03","name":"KF.0169 TPI","branch_id":48,"store_type":"HEALTH_AND_CARE","operational_date":"2003-01-01","address":"Jl. Raja Ali Haji Km. 4 No. 7-8","zip_id":24899,"latitude":0.908925,"longitude":104.463989,"phone":"08117005039"},{"sap_id":"AI04","name":"KF.0142 TBK","branch_id":48,"store_type":"MEDICAL","operational_date":"2003-01-01","address":"Jl. Ampera No.7","zip_id":24900,"latitude":0.992609,"longitude":103.429445,"phone":"08117005029"},{"sap_id":"AI07","name":"KF.0297 Bintan","branch_id":48,"store_type":"HEALTH_AND_CARE","operational_date":"2003-01-01","address":"Jl. D.I. Panjaitan Km. 9 Komp. Bintan Center","zip_id":24597,"latitude":0.91697,"longitude":104.509754,"phone":"08117005043"},{"sap_id":"AL01","name":"KF.0007 Juanda","branch_id":9,"store_type":"BASIC_HEALTH","operational_date":"2003-01-01","address":"Jl. Ir. H. Juanda No. 30","zip_id":29072,"latitude":-6.6000972,"longitude":106.7944667,"phone":"085779683857"},{"sap_id":"AL02","name":"KF.0050","branch_id":9,"store_type":"HEALTH_AND_CARE","operational_date":"2003-01-01","address":"Jl. Merdeka No. 24","zip_id":26889,"latitude":-6.594562,"longitude":106.788489,"phone":"081288937476"},{"sap_id":"AL03","name":"KF.0110","branch_id":9,"store_type":"SUPER_STORE","operational_date":"2003-01-01","address":"Jl. Kebon Pedes No. 45","zip_id":27912,"latitude":-6.5664979,"longitude":106.7987113,"phone":"081297211173"},{"sap_id":"AL04","name":"KF.0113 Tajur Lama","branch_id":9,"store_type":"BASIC_HEALTH","operational_date":"2003-01-01","address":"Jl. Raya Wangun No. 240 D","zip_id":29989,"latitude":-6.6473649,"longitude":106.839956,"phone":"081110678486"},{"sap_id":"AM02","name":"KF.0202","branch_id":13,"store_type":"HEALTH_AND_CARE","operational_date":"2003-01-01","address":"Jl. Kejayaan Raya Blok IX No.2","zip_id":25247,"latitude":-6.391537,"longitude":106.851822,"phone":"081110678335"},{"sap_id":"AN01","name":"KF.0040","branch_id":11,"store_type":"MEDICAL","operational_date":"2003-01-01","address":"Jl. Parujakan No. 12","zip_id":29417,"latitude":-6.717193,"longitude":108.559293,"phone":"081110678406"},{"sap_id":"AN02","name":"KF.0141 Kesambi","branch_id":11,"store_type":"BASIC_HEALTH","operational_date":"2003-01-01","address":"Jl. Kesambi No. 132","zip_id":30680,"latitude":-6.737528,"longitude":108.549466,"phone":"08112010141"},{"sap_id":"AO01","name":"KF.0082","branch_id":31,"store_type":"HEALTH_AND_CARE","operational_date":"2003-01-01","address":"Jl. Dewi Sartika No.67, Kuta","zip_id":39312,"latitude":-8.738069,"longitude":115.1659323,"phone":"081139607717"},{"sap_id":"AO02","name":"KF.0126","branch_id":31,"store_type":"SUPER_STORE","operational_date":"2003-01-01","address":"Jl. By Pass Ngurah Rai No.890","zip_id":50354,"latitude":-8.796092,"longitude":115.219354,"phone":"08113803386"},{"sap_id":"AO03","name":"KF.0157","branch_id":31,"store_type":"SUPER_STORE","operational_date":"2003-01-01","address":"Jl. Raya Tuban No.15","zip_id":39312,"latitude":-8.73308,"longitude":115.177854,"phone":"089624059165"},{"sap_id":"AO04","name":"KF.0232 Seminyak","branch_id":31,"store_type":"SUPER_STORE","operational_date":"2003-01-01","address":"Jl. Raya Kerobokan No.140","zip_id":50533,"latitude":-8.682299,"longitude":115.164309,"phone":"081139607730"},{"sap_id":"AO05","name":"KF.0236 Taman Griya","branch_id":31,"store_type":"SUPER_STORE","operational_date":"2003-01-01","address":"Jl. Danau Batur No.1 C","zip_id":33559,"latitude":-8.784818,"longitude":115.18763,"phone":"081995119438"},{"sap_id":"AO06","name":"KF.0242 Kuta","branch_id":31,"store_type":"MEDICAL","operational_date":"2003-01-01","address":"Jl. Raya Kuta No.102","zip_id":35357,"latitude":-8.721976,"longitude":115.178513,"phone":"089694342489"},{"sap_id":"AP01","name":"KF.0034","branch_id":12,"store_type":"BASIC_HEALTH","operational_date":"2003-01-01","address":"Jl. Diponegoro No.125","zip_id":50435,"latitude":-8.669885,"longitude":115.215785,"phone":"081138115341"},{"sap_id":"AP03","name":"KF.0066 Pattimura","branch_id":12,"store_type":"MEDICAL","operational_date":"2003-01-01","address":"Jl. Patimura No.59","zip_id":50423,"latitude":-8.649056,"longitude":115.22072,"phone":"081138115342"},{"sap_id":"AP04","name":"KF.0102 Tabanan","branch_id":12,"store_type":"BASIC_HEALTH","operational_date":"2003-01-01","address":"Jl. Ngurah Rai No.74A","zip_id":31448,"latitude":-8.552691,"longitude":115.140811,"phone":"081138200524"},{"sap_id":"AP05","name":"KF.0108 Teuku Umar","branch_id":12,"store_type":"MEDICAL","operational_date":"2003-01-01","address":"Jl.Teuku Umar No.246","zip_id":50434,"latitude":-8.6811023,"longitude":115.1986496,"phone":"081138115344"},{"sap_id":"AP06","name":"KF.0125 Singaraja","branch_id":12,"store_type":"BASIC_HEALTH","operational_date":"2003-01-01","address":"Jl. A. Yani No. 60","zip_id":50497,"latitude":-8.11044,"longitude":115.087719,"phone":"081138115345"},{"sap_id":"AP07","name":"KF.0154 Gatsu","branch_id":12,"store_type":"BASIC_HEALTH","operational_date":"2003-01-01","address":"Jl. Gatsu Barat No.32 C","zip_id":50685,"latitude":-8.639305,"longitude":115.204306,"phone":"081138115346"},{"sap_id":"AP08","name":"KF.0155","branch_id":12,"store_type":"BASIC_HEALTH","operational_date":"2003-01-01","address":"Jl. Hayam Wuruk No.32","zip_id":50857,"latitude":-8.65723,"longitude":115.226593,"phone":"081138115347"},{"sap_id":"AP09","name":"KF.0173 Sanur","branch_id":12,"store_type":"MEDICAL","operational_date":"2003-01-01","address":"Jl. Bypass Ngurah Rai No. 214 Sanur","zip_id":50769,"latitude":-8.6773094,"longitude":115.2586158,"phone":"081138115348"},{"sap_id":"AP10","name":"KF.0190 Ubud","branch_id":12,"store_type":"BASIC_HEALTH","operational_date":"2003-01-01","address":"Jl. Raya Peliatan No.100","zip_id":50683,"latitude":-8.521903,"longitude":115.268253,"phone":"081138115349"},{"sap_id":"AP11","name":"KF.0192 G Sangiang","branch_id":12,"store_type":"MEDICAL","operational_date":"2003-01-01","address":"Jl. G.Sanghyang No.23 C","zip_id":50643,"latitude":-8.64854,"longitude":115.184676,"phone":"081110678454"},{"sap_id":"AP12","name":"KF.0200 Tohpati","branch_id":12,"store_type":"MEDICAL","operational_date":"2003-01-01","address":"Jl.WR Supratman No.303","zip_id":50539,"latitude":-8.639326,"longitude":115.25321,"phone":"085337811316"},{"sap_id":"AP13","name":"KF.0211 Sesetan","branch_id":12,"store_type":"BASIC_HEALTH","operational_date":"2003-01-01","address":"JL. RAYA SESETAN NO. 143 DENPASAR","zip_id":50819,"latitude":-8.693026,"longitude":115.218233,"phone":"08814687591"},{"sap_id":"AP14","name":"KF.0235 Imam B","branch_id":12,"store_type":"MEDICAL","operational_date":"2003-01-01","address":"Jl. Iman Bonjol No.66","zip_id":50686,"latitude":-8.664916,"longitude":115.207113,"phone":"081138115353"},{"sap_id":"AQ01","name":"KF.0042 Blok M","branch_id":17,"store_type":"SUPER_STORE","operational_date":"2003-01-01","address":"Jl. St.Hasanuddin No. 1","zip_id":25135,"latitude":-6.2439459,"longitude":106.7961223,"phone":"082111137613"},{"sap_id":"AQ04","name":"KF.0096 Kemanggisan Raya","branch_id":17,"store_type":"MEDICAL","operational_date":"2003-01-01","address":"Jl. Kemanggisan Raya No. 26C, Jakarta Barat, DKI Jakarta","zip_id":25106,"latitude":-6.1972642,"longitude":106.7800805,"phone":"081219689796"},{"sap_id":"AQ05","name":"KF.0152 Ps Minggu","branch_id":17,"store_type":"HEALTH_AND_CARE","operational_date":"2003-01-01","address":"Jl. Pasar Minggu Raya Km 19 No","zip_id":25156,"latitude":-6.275327,"longitude":106.845688,"phone":"081219110241"},{"sap_id":"AQ06","name":"KF.0254 Pos Pengumben","branch_id":17,"store_type":"SUPER_STORE","operational_date":"2003-01-01","address":"Jl. Raya Pos Pengumben Blok I No.11","zip_id":25216,"latitude":-6.216876,"longitude":106.76983,"phone":"081219112426"},{"sap_id":"AQ07","name":"KF.0267 Bintaro","branch_id":17,"store_type":"MEDICAL","operational_date":"2003-01-01","address":"Jl. Bintaro Utama V Blok EB I","zip_id":49841,"latitude":-6.270478,"longitude":106.730668,"phone":"082116323140"},{"sap_id":"AQ08","name":"KF.0282 Ks Tubun","branch_id":17,"store_type":"SUPER_STORE","operational_date":"2003-01-01","address":"Jl.Aipda KS Tubun No.83 Rt.02 Rw.07","zip_id":25213,"latitude":-6.19926,"longitude":106.80121,"phone":"085774808087"},{"sap_id":"AQ11","name":"KF.0006 Pejompongan","branch_id":17,"store_type":"SUPER_STORE","operational_date":"2003-01-01","address":"Jl. Danau Tondano No. 1","zip_id":24988,"latitude":-6.20757,"longitude":106.806802,"phone":"081219412557"},{"sap_id":"AQ24","name":"APT.055 OSHCS","branch_id":17,"store_type":"SUPER_STORE","operational_date":"2003-01-01","address":"Jl.Kebayoran Lama No 50,RT/RW. 001/001","zip_id":25216,"latitude":-6.226488,"longitude":106.778291,"phone":"081212365088"},{"sap_id":"AQ2402","name":"Optik KF.055 OSHCS","branch_id":17,"store_type":"NULL","operational_date":"2003-01-01","address":"Jln. Raya Kebayoran Lama No. 50","zip_id":25042,"latitude":-6.226541,"longitude":106.776118,"phone":0},{"sap_id":"AR03","name":"APT. KF.0001 KEMAYORAN","branch_id":18,"store_type":"SUPER_STORE","operational_date":"2003-01-01","address":"Jl. Garuda No. 47","zip_id":25045,"latitude":-6.161874,"longitude":106.843747,"phone":"08111201001"},{"sap_id":"AR04","name":"APT. KF.0002 SENEN","branch_id":18,"store_type":"HEALTH_AND_CARE","operational_date":"2003-01-01","address":"Jl. Senen Raya No. 66","zip_id":25209,"latitude":-6.178325,"longitude":106.841541,"phone":"081110678177"},{"sap_id":"AR06","name":"APT. KF.0005 CIKINI","branch_id":18,"store_type":"HEALTH_AND_CARE","operational_date":"2003-01-01","address":"Jl. Cikini Raya No. 121","zip_id":25006,"latitude":-6.196867,"longitude":106.840513,"phone":"08111201005"},{"sap_id":"AR07","name":"APT. KF.0046 RAWA BADAK","branch_id":18,"store_type":"NONE","operational_date":"2003-01-01","address":"Lorong 104 No.5B, Rawa Badak Utara, Koja, Jakarta Utara, DKI Jakarta","zip_id":25194,"latitude":-6.114081,"longitude":106.894138,"phone":"08112221916"},{"sap_id":"AR08","name":"APT. KF.0048 MATRAMAN","branch_id":18,"store_type":"SUPER_STORE","operational_date":"2003-01-01","address":"Jl. Matraman Raya No. 85, Pal Meriem,","zip_id":25144,"latitude":-6.20498,"longitude":106.858195,"phone":"08112223048"},{"sap_id":"AR10","name":"APT. KF.0049 PONDOK BAMBU","branch_id":18,"store_type":"BASIC_HEALTH","operational_date":"2003-01-01","address":"Jl. Pahlawan Revolusi No. 53","zip_id":25109,"latitude":-6.220213,"longitude":106.899703,"phone":"08112223049"},{"sap_id":"AR11","name":"APT. KF.0147 DUREN SAWIT","branch_id":18,"store_type":"HEALTH_AND_CARE","operational_date":"2003-01-01","address":"Jl. Duren Sawit Raya No. 29","zip_id":25109,"latitude":-6.22115,"longitude":106.910561,"phone":"081110678120"},{"sap_id":"AR12","name":"APT. KF.0193 UTAN KAYU","branch_id":18,"store_type":"BASIC_HEALTH","operational_date":"2003-01-01","address":"Jl. Utan Kayu No. 105B","zip_id":25243,"latitude":-6.196201,"longitude":106.872342,"phone":"08112221999"},{"sap_id":"AR13","name":"APT. KF.0198 PERCETAKAN NEGARA","branch_id":18,"store_type":"BASIC_HEALTH","operational_date":"2003-01-01","address":"Jl. Percetakan Negara No. 34A","zip_id":24998,"latitude":-6.187816,"longitude":106.864026,"phone":"081110678122"},{"sap_id":"AS01","name":"KF.0172","branch_id":19,"store_type":"BASIC_HEALTH","operational_date":"2003-01-01","address":"Jl koti no 36","zip_id":77645,"latitude":-2.543552,"longitude":140.706641,"phone":"081110678561"},{"sap_id":"AS02","name":"KF.0194","branch_id":19,"store_type":"BASIC_HEALTH","operational_date":"2003-01-01","address":"Jl. A.Yani No. 29","zip_id":76053,"latitude":-2.542819,"longitude":140.702836,"phone":"081110678497"},{"sap_id":"AS05","name":"KF.Pel062 RSUD Jayapura","branch_id":19,"store_type":"NONE","operational_date":"2003-01-01","address":"Jl. Kesehatan Dok II, Komp. RS","zip_id":76053,"latitude":-2.534403,"longitude":140.710864,"phone":"081247885363"},{"sap_id":"AS06","name":"KF Grand Allison Sentani","branch_id":19,"store_type":"BASIC_HEALTH","operational_date":"2003-01-01","address":"JL. RAYA KEMIRI NO. 282 KOMPLEKS MISI SENTANI JAYAPURA","zip_id":75114,"latitude":14.0501601,"longitude":-2.563492,"phone":"021"},{"sap_id":"AT01","name":"KF.0062","branch_id":20,"store_type":"MEDICAL","operational_date":"2003-01-01","address":"Jl. Gajah Mada No. 171","zip_id":42473,"latitude":-8.1735574,"longitude":113.6896921,"phone":"081110678565"},{"sap_id":"AT03","name":"KF.0121","branch_id":20,"store_type":"MEDICAL","operational_date":"2003-01-01","address":"Jl. Let. Jen. Suprapto No. 76","zip_id":34581,"latitude":-8.182303,"longitude":113.703213,"phone":"081110678564"},{"sap_id":"AT04","name":"KF.0241","branch_id":20,"store_type":"HEALTH_AND_CARE","operational_date":"2003-01-01","address":"Jl. Panglima Sudirman No. 46","zip_id":42474,"latitude":-8.165579,"longitude":113.705356,"phone":"081110678566"},{"sap_id":"AU01","name":"KF.0104","branch_id":22,"store_type":"BASIC_HEALTH","operational_date":"2003-01-01","address":"Jl. Moh. Hatta No. 77","zip_id":70626,"latitude":-3.968639,"longitude":122.573256,"phone":"085337519349"},{"sap_id":"AU05","name":"KF.Pel045 RSUD Kendari","branch_id":22,"store_type":"BASIC_HEALTH","operational_date":"2003-01-01","address":"Jl. Kapten Piere Tendean Kel.","zip_id":71963,"latitude":-4.035772,"longitude":122.492293,"phone":"082345601895"},{"sap_id":"AV01","name":"KF.0101","branch_id":23,"store_type":"BASIC_HEALTH","operational_date":"2003-01-01","address":"Jl. Herewila No. 38","zip_id":53716,"latitude":-10.173266,"longitude":123.598793,"phone":"081339533174"},{"sap_id":"AV02","name":"KF.0135","branch_id":23,"store_type":"BASIC_HEALTH","operational_date":"2003-01-01","address":"Jl. Dr. Moh. Hatta No. 46","zip_id":52629,"latitude":-10.1686223,"longitude":123.5827043,"phone":"081110678098"},{"sap_id":"AV03","name":"KF.0159","branch_id":23,"store_type":"MEDICAL","operational_date":"2003-01-01","address":"Jl. Suharto No. 74","zip_id":53714,"latitude":-10.183114,"longitude":123.602615,"phone":"081110678110"},{"sap_id":"AV06","name":"KF.Pel018 RSU Dr.W.Z.Johanes","branch_id":23,"store_type":"MEDICAL","operational_date":"2003-01-01","address":"Jl. Dr. M. Hatta No. 19","zip_id":52629,"latitude":-10.167316,"longitude":123.585544,"phone":"081338244338"},{"sap_id":"AV07","name":"KF.Pel061 RSUD Dr.TC Hillers","branch_id":23,"store_type":"NONE","operational_date":"2003-01-01","address":"Jl. Wair klau No.1","zip_id":53086,"latitude":-8.622716,"longitude":122.204945,"phone":"082144225018"},{"sap_id":"AW01","name":"KF.0131","branch_id":24,"store_type":"MEDICAL","operational_date":"2003-01-01","address":"Jl. Kartini No. 44-45","zip_id":22946,"latitude":-5.417978,"longitude":105.25339,"phone":"081110678131"},{"sap_id":"AW02","name":"KF.0222","branch_id":24,"store_type":"BASIC_HEALTH","operational_date":"2003-01-01","address":"Jl. Gajah Mada No. 56","zip_id":76816,"latitude":-5.415719,"longitude":105.266853,"phone":"081110678112"},{"sap_id":"AW04","name":"KF.0285 Way Halim","branch_id":24,"store_type":"BASIC_HEALTH","operational_date":"2003-01-01","address":"Jl. Kimaja No. 40 C Way Halim","zip_id":23316,"latitude":-5.379252,"longitude":105.271946,"phone":"08154073373"},{"sap_id":"AX01","name":"KF.0033","branch_id":26,"store_type":"BASIC_HEALTH","operational_date":"2003-01-01","address":"Jl. Jend A.Yani 17 - 19","zip_id":68085,"latitude":-5.132714,"longitude":119.409522,"phone":"085240859840"},{"sap_id":"AX02","name":"KF.0038","branch_id":26,"store_type":"BASIC_HEALTH","operational_date":"2003-01-01","address":"Jl. St. Hasanuddin 46","zip_id":67508,"latitude":-5.1412159,"longitude":115.4104802,"phone":"08114133173"},{"sap_id":"AX03","name":"KF.0199 Erlina","branch_id":26,"store_type":"BASIC_HEALTH","operational_date":"2003-01-01","address":"Jl. Urip Sumoharjo 32","zip_id":67439,"latitude":-5.135079,"longitude":119.430799,"phone":"08114127234"},{"sap_id":"AX06","name":"KF.0250 Rexa","branch_id":26,"store_type":"HEALTH_AND_CARE","operational_date":"2003-01-01","address":"Jl. Dr. Ratulangi 59","zip_id":66441,"latitude":-5.1579167,"longitude":119.4147433,"phone":"08114152234"},{"sap_id":"AX09","name":"KF Belopa","branch_id":26,"store_type":"MEDICAL","operational_date":"2003-01-01","address":"Jl. Sungai Pareman No.70, Kel Sabe,","zip_id":66188,"latitude":-3.380129034,"longitude":120.3679478,"phone":"021"},{"sap_id":"AX11","name":"KF.Andi Pare-Pare","branch_id":26,"store_type":"MEDICAL","operational_date":"2003-01-01","address":"Jl. Nurussamawati 3 No. 151","zip_id":60760,"latitude":-4.008276,"longitude":119.626959,"phone":"08114154234"},{"sap_id":"AY01","name":"KF.0036","branch_id":27,"store_type":"BASIC_HEALTH","operational_date":"2003-01-01","address":"Jl. Raya Ijen No. 88","zip_id":45083,"latitude":-7.96387,"longitude":112.62547,"phone":"08113279387"},{"sap_id":"AY02","name":"KF.0053","branch_id":27,"store_type":"BASIC_HEALTH","operational_date":"2003-01-01","address":"Jl. Kawi No, 22 A","zip_id":43127,"latitude":-7.978873,"longitude":112.625129,"phone":"081110678192"},{"sap_id":"AY03","name":"KF 0075 Mojoroto","branch_id":27,"store_type":"BASIC_HEALTH","operational_date":"2003-01-01","address":"Jl. Jaksa Agung Suprapto no. 25, Mojoroto,Kota Kediri, Jawa Timur","zip_id":41608,"latitude":-7.807152,"longitude":112.004412,"phone":"081110678267"},{"sap_id":"AY04","name":"KF.0077","branch_id":27,"store_type":"MEDICAL","operational_date":"2003-01-01","address":"Jl. Sukarjo Wiryopranoto No. 2","zip_id":23673,"latitude":-7.984579,"longitude":112.6287453,"phone":"08113279397"},{"sap_id":"AY06","name":"KF.0150","branch_id":27,"store_type":"BASIC_HEALTH","operational_date":"2003-01-01","address":"Jl. Selat Sunda I/D2 No. 25 Ma","zip_id":35555,"latitude":-7.981164,"longitude":112.655739,"phone":"08113279403"},{"sap_id":"AY07","name":"KF.0151","branch_id":27,"store_type":"MEDICAL","operational_date":"2003-01-01","address":"Jl. Stasiun No. 47","zip_id":40454,"latitude":-7.817003,"longitude":112.013507,"phone":"081110678265"},{"sap_id":"AY08","name":"KF.0187","branch_id":27,"store_type":"BASIC_HEALTH","operational_date":"2003-01-01","address":"Jl. M.T. Haryono No. 110","zip_id":41625,"latitude":-7.941988,"longitude":112.609379,"phone":"081110678251"},{"sap_id":"AY09","name":"KF.0210 Bengawan Solo","branch_id":27,"store_type":"BASIC_HEALTH","operational_date":"2003-01-01","address":"Jl. Tumenggung suryo No. 25","zip_id":46032,"latitude":-7.9608213,"longitude":112.6413568,"phone":"081110678270"},{"sap_id":"AY10","name":"KF.0245 Batu","branch_id":27,"store_type":"MEDICAL","operational_date":"2003-01-01","address":"Jl. Diponegoro No.93","zip_id":46920,"latitude":-7.874261,"longitude":112.529773,"phone":"081110678264"},{"sap_id":"AY16","name":"KF Sukun Malang","branch_id":27,"store_type":"MEDICAL","operational_date":"2003-01-01","address":"Jl. Sudanco Supriadi No. 41A","zip_id":47255,"latitude":-7.990671,"longitude":112.621589,"phone":"08113279399"},{"sap_id":"AZ02","name":"KF.0272","branch_id":14,"store_type":"MEDICAL","operational_date":"2003-01-01","address":"Jl. Botutihe No. 1","zip_id":71381,"latitude":0.537574176,"longitude":123.061049,"phone":"082290142337"},{"sap_id":"BA01","name":"KF.0074","branch_id":28,"store_type":"SUPER_STORE","operational_date":"2003-01-01","address":"Jl. Sam Ratulangi No. 31","zip_id":64034,"latitude":1.485997,"longitude":124.837703,"phone":"08114305574"},{"sap_id":"BA02","name":"KF.0129","branch_id":28,"store_type":"BASIC_HEALTH","operational_date":"2003-01-01","address":"Jl. A.Yani No. 26 Sario Manado","zip_id":63600,"latitude":1.465736,"longitude":124.830227,"phone":"08124539975"},{"sap_id":"BA03","name":"KF.0262","branch_id":28,"store_type":"SUPER_STORE","operational_date":"2003-01-01","address":"Jl. Adampe Dolot No. 22","zip_id":63177,"latitude":0.73814,"longitude":124.308247,"phone":"082188785424"},{"sap_id":"BA10","name":"KF.Pel005 RSUP Malayang Kandau","branch_id":28,"store_type":"MEDICAL","operational_date":"2003-01-01","address":"Jl. Wolter Monginsidi","zip_id":63081,"latitude":1.453628,"longitude":124.808188,"phone":"082194754501"},{"sap_id":"BB01","name":"KF.0168","branch_id":50,"store_type":"SUPER_STORE","operational_date":"2003-01-01","address":"Jl. Hasan Esa No. 151","zip_id":74587,"latitude":0.780072,"longitude":127.382797,"phone":"08114330824"},{"sap_id":"BB02","name":"KF.PEL038 RSUD TERNATE","branch_id":50,"store_type":"BASIC_HEALTH","operational_date":"2003-01-01","address":"Jl. Tanah Tinggi No. 31 Komp.","zip_id":11895,"latitude":0.7820898,"longitude":127.3757776,"phone":"081143005381"},{"sap_id":"BC01","name":"KF.0134","branch_id":29,"store_type":"SUPER_STORE","operational_date":"2003-01-01","address":"Jl. Pejanggik No. 48","zip_id":51105,"latitude":-8.586423,"longitude":116.120048,"phone":"081138007801"},{"sap_id":"BC02","name":"KF.0189","branch_id":29,"store_type":"MEDICAL","operational_date":"2003-01-01","address":"Jl. Sriwijaya No. 295 Mataram","zip_id":51619,"latitude":-8.59516,"longitude":116.106005,"phone":"081138007802"},{"sap_id":"BC03","name":"KF.0231","branch_id":29,"store_type":"BASIC_HEALTH","operational_date":"2003-01-01","address":"Jl. Saleh Sungkar No. 33 Ampenan","zip_id":47663,"latitude":-8.569152,"longitude":116.076379,"phone":"081138007803"},{"sap_id":"BC04","name":"KF.0234","branch_id":29,"store_type":"MEDICAL","operational_date":"2003-01-01","address":"Jl Selaparan Sweta Timur, Mayura, Cakranegara","zip_id":51108,"latitude":-8.590117468,"longitude":116.1432659,"phone":"081138007804"},{"sap_id":"BC05","name":"KF.0263","branch_id":29,"store_type":"BASIC_HEALTH","operational_date":"2003-01-01","address":"Jl. Soekarno Hatta No.3","zip_id":51647,"latitude":-8.455191,"longitude":118.727275,"phone":"081138007805"},{"sap_id":"BC09","name":"KF.Ex Pel 55 RSUD Selong","branch_id":29,"store_type":"SUPER_STORE","operational_date":"2003-01-01","address":"Jln pejanggik no 56","zip_id":51468,"latitude":-8.6498696,"longitude":116.5224442,"phone":"081138007809"},{"sap_id":"BD01","name":"KF.0027","branch_id":30,"store_type":"SUPER_STORE","operational_date":"2003-01-01","address":"Jl. Palang Merah No. 32","zip_id":8426,"latitude":3.584705,"longitude":98.679853,"phone":"08116533153"},{"sap_id":"BD0111","name":"KF. 27 (M3/ALKES)","branch_id":30,"store_type":"NONE","operational_date":"2003-01-01","address":"Jl. Palang Merah No.32","zip_id":8426,"latitude":3.5845952,"longitude":3.5845952,"phone":"08116533148"},{"sap_id":"BD03","name":"KF.0029","branch_id":30,"store_type":"BASIC_HEALTH","operational_date":"2003-01-01","address":"Jl. Sutomo No. 63","zip_id":10289,"latitude":2.955778,"longitude":99.062935,"phone":"081110678205"},{"sap_id":"BD04","name":"KF.0030","branch_id":30,"store_type":"BASIC_HEALTH","operational_date":"2003-01-01","address":"Jl. Let.Jend.Soeprapto No. 56","zip_id":12096,"latitude":3.3282916,"longitude":99.1616387,"phone":"081110678203"},{"sap_id":"BD0412","name":"PPO2  KF. 0030","branch_id":30,"store_type":"CHILD","operational_date":"2003-01-01","address":"Jln. Let.Jend.Soeprapto No. 56","zip_id":6859,"latitude":0,"longitude":0,"phone":0},{"sap_id":"BD05","name":"KF.0039","branch_id":30,"store_type":"SUPER_STORE","operational_date":"2003-01-01","address":"Jl. Jend. Gatot Subroto No. 37 A/C  Kel. Sei Sikambing D Kec. Medan Petisah Medan - 20119 Sumatera Utara","zip_id":10724,"latitude":3.5899008,"longitude":98.650614,"phone":"081110678190"},{"sap_id":"BD06","name":"KF.0041 Ketaren","branch_id":30,"store_type":"HEALTH_AND_CARE","operational_date":"2003-01-01","address":"Jl. Selamet Ketaren Blok C/Kav-12","zip_id":7604,"latitude":3.098542,"longitude":98.491383,"phone":"08116533193"},{"sap_id":"BD07","name":"KF.0085","branch_id":30,"store_type":"BASIC_HEALTH","operational_date":"2003-01-01","address":"Jl. Diponegoro No. 15/87 Kel. Karo","zip_id":8377,"latitude":2.953365,"longitude":99.064689,"phone":"081110678207"},{"sap_id":"BD08","name":"KF.0107","branch_id":30,"store_type":"BASIC_HEALTH","operational_date":"2003-01-01","address":"Jl. Gato Subroto No. 72C","zip_id":10700,"latitude":3.590701,"longitude":98.660399,"phone":"081110678213"},{"sap_id":"BD09","name":"KF.0160","branch_id":30,"store_type":"SUPER_STORE","operational_date":"2003-01-01","address":"Jl. Setia Budi No. 94 B-C","zip_id":23879,"latitude":3.575937833,"longitude":98.64275558,"phone":"081110678209"},{"sap_id":"BD10","name":"KF.0162","branch_id":30,"store_type":"SUPER_STORE","operational_date":"2003-01-01","address":"Jl. Kartini No. 19","zip_id":17132,"latitude":2.956977,"longitude":99.055253,"phone":"08116533205"},{"sap_id":"BD13","name":"KF.Pel014 RS Umum dr. Pirngadi","branch_id":30,"store_type":"MEDICAL","operational_date":"2003-01-01","address":"Jl. Prof.H.M Yamin Sh No.47","zip_id":10112,"latitude":3.597657,"longitude":98.688283,"phone":"08116533151"},{"sap_id":"BD14","name":"KF.Pel041 RS Umum Kota Tebing","branch_id":30,"store_type":"NULL","operational_date":"2003-01-01","address":"Jln. Kumpul Pane NO.226","zip_id":6859,"latitude":0,"longitude":0,"phone":0},{"sap_id":"BD15","name":"KF.Pel054 RSUD Rantau Prapat","branch_id":30,"store_type":"NONE","operational_date":"2003-01-01","address":"Jl. Kihajar Dewantara No. 129","zip_id":11420,"latitude":2.095883,"longitude":99.846536,"phone":"08116533215"},{"sap_id":"BD16","name":"KF 84 Tanjungbalai","branch_id":30,"store_type":"BASIC_HEALTH","operational_date":"2003-01-01","address":"Jl. Sudirman No. 25 B Kel. Karya","zip_id":12044,"latitude":2.9641164,"longitude":99.8038151,"phone":"08116533211"},{"sap_id":"BE02","name":"KF.0146","branch_id":32,"store_type":"SUPER_STORE","operational_date":"2003-01-01","address":"Jl. Jend. Sudirman No. 14","zip_id":13504,"latitude":-0.311677,"longitude":100.372577,"phone":"081277222146"},{"sap_id":"BE06","name":"Apotek Kimia Farma RSUP Dr. M. Djamil Pa","branch_id":32,"store_type":"BASIC_HEALTH","operational_date":"2003-01-01","address":"Jl. Perintis Kemerdekaan No. 24","zip_id":13241,"latitude":-1.34563235,"longitude":-1.34,"phone":"07514788361"},{"sap_id":"BF02","name":"KF.0103","branch_id":33,"store_type":"MEDICAL","operational_date":"2003-01-01","address":"Jl. H.M. Arsyad No. 120 D-E","zip_id":57883,"latitude":-2.541614,"longitude":112.949288,"phone":"081110678106"},{"sap_id":"BH01","name":"KF.0072","branch_id":34,"store_type":"BASIC_HEALTH","operational_date":"2003-01-01","address":"Jl. Suprapto No.64","zip_id":20539,"latitude":-3.794867,"longitude":102.264513,"phone":"0811730720"},{"sap_id":"BH02","name":"KF.0080","branch_id":34,"store_type":"BASIC_HEALTH","operational_date":"2003-01-01","address":"Jl. Kol. Atmo No.1250","zip_id":16951,"latitude":-2.980792,"longitude":104.756987,"phone":"08117853168"},{"sap_id":"BH03","name":"KF.0118","branch_id":34,"store_type":"NONE","operational_date":"2003-01-01","address":"Jl. Jend. A. Yani No.96","zip_id":24232,"latitude":-2.122221,"longitude":106.10865,"phone":"08117847841"},{"sap_id":"BH04","name":"KF.0209 Rosarum","branch_id":34,"store_type":"MEDICAL","operational_date":"2003-01-01","address":"Jl. Iskandar Muda No.222","zip_id":16962,"latitude":-2.983886,"longitude":104.756115,"phone":"08117853170"},{"sap_id":"BH05","name":"KF.0220","branch_id":34,"store_type":"BASIC_HEALTH","operational_date":"2003-01-01","address":"Jl. Jati No.3","zip_id":21409,"latitude":-3.803051,"longitude":102.276498,"phone":"08117853181"},{"sap_id":"BH06","name":"KF.0239 Diatari","branch_id":34,"store_type":"BASIC_HEALTH","operational_date":"2003-01-01","address":"Jl. MP. Mangkunegara No.1","zip_id":17273,"latitude":-2.947385,"longitude":104.767878,"phone":"08117853171"},{"sap_id":"BH10","name":"KF.Pel029 RSUD Pangkal Pinang","branch_id":34,"store_type":"NONE","operational_date":"2003-01-01","address":"Jl. Mayor Syafri Rahman Komp. RSU Pangkal Pinang","zip_id":24489,"latitude":-2.143688,"longitude":106.125029,"phone":"08117853184"},{"sap_id":"BI05","name":"KF.Pel025 RSUD Undata","branch_id":35,"store_type":"BASIC_HEALTH","operational_date":"2003-01-01","address":"Jl. R.E.Martadinata Ruko Square Blok A/2 Kompleks Martadinata","zip_id":65858,"latitude":-0.856716,"longitude":119.884016,"phone":"081110678189"},{"sap_id":"BJ01","name":"KF.0093","branch_id":37,"store_type":"MEDICAL","operational_date":"2003-01-01","address":"Jl. Jend. Sudirman No. 175","zip_id":14091,"latitude":0.530415,"longitude":101.447702,"phone":"081110678258"},{"sap_id":"BJ02","name":"KF.0122","branch_id":37,"store_type":"MEDICAL","operational_date":"2003-01-01","address":"Jl. Jend. A. Yani No. 118 C","zip_id":14595,"latitude":0.523833,"longitude":101.44209,"phone":"081110678101"},{"sap_id":"BJ03","name":"KF.0229","branch_id":37,"store_type":"BASIC_HEALTH","operational_date":"2003-01-01","address":"Jl. Sudirman No. 724","zip_id":15164,"latitude":0.498962,"longitude":101.454232,"phone":"081110678173"},{"sap_id":"BK01","name":"KF.0032","branch_id":38,"store_type":"SUPER_STORE","operational_date":"2003-01-01","address":"Jl. Tanjung Pura No. 419","zip_id":55413,"latitude":-0.036767,"longitude":109.346656,"phone":"081110678162"},{"sap_id":"BM01","name":"KF M. Yamin (KF 105)","branch_id":40,"store_type":"HEALTH_AND_CARE","operational_date":"2003-01-01","address":"Jl. M Yamin Ruko M Yamin Square No.6, Kel. Gunung Kelua, Samarinda Ulu, Kota Samarinda, Kalimantan Timur 75123","zip_id":61011,"latitude":-0.120958483,"longitude":117.1271692,"phone":"08115583901"},{"sap_id":"BM02","name":"KF Hidayatullah (KF 114)","branch_id":40,"store_type":"MEDICAL","operational_date":"2003-01-01","address":"Jl. P. Hidyatullah No. 46","zip_id":61428,"latitude":-0.50195,"longitude":117.155618,"phone":"08115583902"},{"sap_id":"BM03","name":"KF Agus Salim (KF 138)","branch_id":40,"store_type":"SUPER_STORE","operational_date":"2003-01-01","address":"Jl. KH.Agus Salim No. 30","zip_id":61577,"latitude":-0.494367,"longitude":117.150761,"phone":"08115583903"},{"sap_id":"BM04","name":"KF Slamet Riyadi (KF 176)","branch_id":40,"store_type":"MEDICAL","operational_date":"2003-01-01","address":"Jl. Slamet Riyadi RT 05 RW 02, Kel. Karang Asam Ilir, Kec. Sungai Kunjang, Kota Samarinda","zip_id":61044,"latitude":-0.507002,"longitude":117.118889,"phone":"08115583904"},{"sap_id":"BM05","name":"KF Antasari (KF 177)","branch_id":40,"store_type":"MEDICAL","operational_date":"2003-01-01","address":"Jl. P. Antasari No. 3","zip_id":6612,"latitude":-0.492612,"longitude":117.127111,"phone":"08115583905"},{"sap_id":"BM06","name":"KF Bhayangkara Btg (KF 257)","branch_id":40,"store_type":"BASIC_HEALTH","operational_date":"2003-01-01","address":"Jl. Bhayangkara No. 18","zip_id":13728,"latitude":0.137912,"longitude":117.465629,"phone":"08115583906"},{"sap_id":"BM07","name":"KF Cendrawasih (KF 273)","branch_id":40,"store_type":"HEALTH_AND_CARE","operational_date":"2003-01-01","address":"Jl. Basuki Rahmat No. 22","zip_id":61760,"latitude":-0.476171,"longitude":117.160084,"phone":"08115583907"},{"sap_id":"BN01","name":"KF.0016","branch_id":36,"store_type":"SUPER_STORE","operational_date":"2003-01-01","address":"Jl. Imam Bonjol No.32","zip_id":31697,"latitude":-6.886173,"longitude":109.669618,"phone":"08112608913"},{"sap_id":"BN02","name":"KF.0097","branch_id":36,"store_type":"HEALTH_AND_CARE","operational_date":"2003-01-01","address":"Jl. Mayjend. Sutoyo No.44","zip_id":60047,"latitude":-6.86918,"longitude":109.129773,"phone":"08112608914"},{"sap_id":"BN04","name":"KF.0183","branch_id":36,"store_type":"HEALTH_AND_CARE","operational_date":"2003-01-01","address":"Jl. jend A Yani no 39 Kebondalem, Mulyoharjo, Kec. Pemalang Kab. Pemalang, jawa Tengah","zip_id":36054,"latitude":-6.89201,"longitude":109.38245,"phone":"08112608915"},{"sap_id":"BO01","name":"KF.0017","branch_id":41,"store_type":"BASIC_HEALTH","operational_date":"2003-01-01","address":"Jl. Tentara Pelajar No. 16A","zip_id":35437,"latitude":-7.009127,"longitude":110.433964,"phone":"08112922301"},{"sap_id":"BO02","name":"KF Pandanaran Semarang","branch_id":41,"store_type":"SUPER_STORE","operational_date":"2003-01-01","address":"Jl. Pandanaran No. 66, Semarang Tengah","zip_id":37804,"latitude":-6.986907,"longitude":110.416113,"phone":"08112922302"},{"sap_id":"BO03","name":"KF.0019","branch_id":41,"store_type":"BASIC_HEALTH","operational_date":"2003-01-01","address":"Jl. ST. Agung No. 1 A Komp.Pertokoan R. A/15","zip_id":32692,"latitude":-7.007774,"longitude":110.415696,"phone":"08112922303"},{"sap_id":"BO04","name":"KF.0071","branch_id":41,"store_type":"HEALTH_AND_CARE","operational_date":"2003-01-01","address":"Jl. Dr. Soetomo No. 3","zip_id":25493,"latitude":-6.985427,"longitude":110.408685,"phone":"06281110678071"},{"sap_id":"BO05","name":"KF.0153","branch_id":41,"store_type":"HEALTH_AND_CARE","operational_date":"2003-01-01","address":"Jl. Jati Raya Banyumanik No.1","zip_id":38400,"latitude":-7.069452,"longitude":110.418169,"phone":"081110678154"},{"sap_id":"BO06","name":"KF.0178","branch_id":41,"store_type":"BASIC_HEALTH","operational_date":"2003-01-01","address":"Jl. Brigjend. Sudiarto No.462","zip_id":36784,"latitude":-7.011276,"longitude":110.474587,"phone":"081110678068"},{"sap_id":"BO07","name":"KF.0182","branch_id":41,"store_type":"MEDICAL","operational_date":"2003-01-01","address":"Jl. Brigjen Sudiarto No.30","zip_id":35756,"latitude":-7.334678,"longitude":110.498096,"phone":"08112922307"},{"sap_id":"BO08","name":"KF.0203","branch_id":41,"store_type":"BASIC_HEALTH","operational_date":"2003-01-01","address":"Jl. Diponegoro No.212","zip_id":32900,"latitude":-7.137899,"longitude":110.405282,"phone":"08112922308"},{"sap_id":"BO09","name":"KF.0237","branch_id":41,"store_type":"HEALTH_AND_CARE","operational_date":"2003-01-01","address":"Jl. Dr. Susanto No.31","zip_id":36681,"latitude":-6.746902,"longitude":111.041386,"phone":"08112922309"},{"sap_id":"BO10","name":"KF.0259","branch_id":41,"store_type":"HEALTH_AND_CARE","operational_date":"2003-01-01","address":"Jl. Fatmawati No. 42","zip_id":37926,"latitude":-7.034063,"longitude":110.467578,"phone":"08112922310"},{"sap_id":"BO11","name":"KF.0260","branch_id":41,"store_type":"HEALTH_AND_CARE","operational_date":"2003-01-01","address":"Jl. DI Panjaitan No.47","zip_id":35936,"latitude":-6.985381,"longitude":110.418786,"phone":"08112922311"},{"sap_id":"BO12","name":"KF.0271","branch_id":41,"store_type":"BASIC_HEALTH","operational_date":"2003-01-01","address":"Jl. Dokter Cipto No. 49, Semarang Timur","zip_id":46399,"latitude":-6.976839,"longitude":110.43495,"phone":"08112922312"},{"sap_id":"BO13","name":"KF.0279","branch_id":41,"store_type":"HEALTH_AND_CARE","operational_date":"2003-01-01","address":"Jl. Lukmonohadi No.10","zip_id":32923,"latitude":-6.818779,"longitude":110.837105,"phone":"08112922313"},{"sap_id":"BP01","name":"KF.0063","branch_id":46,"store_type":"SUPER_STORE","operational_date":"2003-01-01","address":"Jl. L. U. Adisucipto No.70","zip_id":34979,"latitude":-7.551793,"longitude":110.794434,"phone":"081326183377"},{"sap_id":"BP02","name":"KF.0076","branch_id":46,"store_type":"SUPER_STORE","operational_date":"2003-01-01","address":"Jl. Jawa No. 14","zip_id":34459,"latitude":-7.623506,"longitude":111.522182,"phone":"081110678141"},{"sap_id":"BP03","name":"KF.0087","branch_id":46,"store_type":"BASIC_HEALTH","operational_date":"2003-01-01","address":"Jl. Kol. Sutarto No.57","zip_id":33454,"latitude":-7.558712,"longitude":110.843996,"phone":"081110678298"},{"sap_id":"BP04","name":"KF.0123","branch_id":46,"store_type":"SUPER_STORE","operational_date":"2003-01-01","address":"Jl. Anggrek No.201","zip_id":37270,"latitude":-7.53506,"longitude":110.591345,"phone":"081110678115"},{"sap_id":"BP06","name":"KF.0228 Sukoharjo","branch_id":46,"store_type":"SUPER_STORE","operational_date":"2003-01-01","address":"Jl. Veteran No. 11","zip_id":33540,"latitude":-7.6819449,"longitude":110.840013,"phone":"081110678116"},{"sap_id":"BP07","name":"KF.0252","branch_id":46,"store_type":"HEALTH_AND_CARE","operational_date":"2003-01-01","address":"Jl. Yosodipuro No. III B","zip_id":35732,"latitude":-7.561816,"longitude":110.811156,"phone":"081110678135"},{"sap_id":"BQ01","name":"KF.0130","branch_id":43,"store_type":"BASIC_HEALTH","operational_date":"2003-01-01","address":"Jl. Jend. Sudirman No. 1","zip_id":80661,"latitude":-0.88626,"longitude":131.286693,"phone":"081110678168"},{"sap_id":"BQ02","name":"KF.0205 Central","branch_id":43,"store_type":"BASIC_HEALTH","operational_date":"2003-01-01","address":"Jl. A. Yani No. 17","zip_id":80240,"latitude":-0.879479,"longitude":131.264374,"phone":"081148501969"},{"sap_id":"BR01","name":"KF.0164 RA Kartini","branch_id":15,"store_type":"HEALTH_AND_CARE","operational_date":"2003-01-01","address":"Jl. RA kartini No.150-152","zip_id":38080,"latitude":-7.16867,"longitude":112.647623,"phone":"081110678508"},{"sap_id":"BS01","name":"KF.0065","branch_id":42,"store_type":"SUPER_STORE","operational_date":"2003-01-01","address":"Jl. Gajah Mada No. 62","zip_id":31356,"latitude":-7.46434,"longitude":112.439295,"phone":"081252221865"},{"sap_id":"BS03","name":"KF.0124","branch_id":42,"store_type":"HEALTH_AND_CARE","operational_date":"2003-01-01","address":"Jl. Raya Sedati Gede No. 59","zip_id":46462,"latitude":-7.377854,"longitude":112.762912,"phone":"08113110124"},{"sap_id":"BS04","name":"KF.0165 Pasuruan","branch_id":42,"store_type":"BASIC_HEALTH","operational_date":"2003-01-01","address":"Jl. Dr.Wahidin sel. No. 59","zip_id":46031,"latitude":-7.659712,"longitude":112.902369,"phone":"081217373636"},{"sap_id":"BS05","name":"KF.0180 Pahlawan","branch_id":42,"store_type":"HEALTH_AND_CARE","operational_date":"2003-01-01","address":"Jl. Pahlawan No. 10","zip_id":44146,"latitude":-7.44975,"longitude":112.70835,"phone":"081110678066"},{"sap_id":"BS06","name":"KF.0261","branch_id":42,"store_type":"BASIC_HEALTH","operational_date":"2003-01-01","address":"Jl. Majapahit No. 38","zip_id":41266,"latitude":-7.460989977,"longitude":112.7172455,"phone":"082231342520"},{"sap_id":"BT01","name":"KF 0022 UPN","branch_id":45,"store_type":"BASIC_HEALTH","operational_date":"2003-01-01","address":"Jl. Rungkut Madya No. 207 C, Surabaya","zip_id":46279,"latitude":-7.331628,"longitude":112.787308,"phone":"081216199699"},{"sap_id":"BT02","name":"KF.0023 Kendangsari","branch_id":45,"store_type":"BASIC_HEALTH","operational_date":"2003-01-01","address":"Jl. Raya Kendangsari Blk.J/7","zip_id":43535,"latitude":-7.320861,"longitude":112.749562,"phone":"08113472525"},{"sap_id":"BT03","name":"KF.0024 Dharmawangsa","branch_id":45,"store_type":"MEDICAL","operational_date":"2003-01-01","address":"Jl. Dharmawanagsa No. 24","zip_id":40209,"latitude":-7.26957,"longitude":112.756204,"phone":"08113290024"},{"sap_id":"BT04","name":"KF.0025 Darmo 2-4","branch_id":45,"store_type":"MEDICAL","operational_date":"2003-01-01","address":"Jl. Raya Darmo No. 2-4","zip_id":41662,"latitude":-7.27755,"longitude":112.7408,"phone":"087797999007"},{"sap_id":"BT05","name":"KF.0026","branch_id":45,"store_type":"MEDICAL","operational_date":"2003-01-01","address":"Jalan Diponegoro No.26, Darmo, Surabaya, Jawa Timur","zip_id":41662,"latitude":-7.29249643,"longitude":112.7376987,"phone":"081217948826"},{"sap_id":"BT06","name":"KF.0035 Ngagel","branch_id":45,"store_type":"BASIC_HEALTH","operational_date":"2003-01-01","address":"Jl. Ngagel Jaya Sel No.109","zip_id":45932,"latitude":-7.293473,"longitude":112.756899,"phone":"081110678255"},{"sap_id":"BT07","name":"KF.0045 Darmo 94","branch_id":45,"store_type":"BASIC_HEALTH","operational_date":"2003-01-01","address":"Jl. Raya Darmo No. 94","zip_id":41662,"latitude":-7.288561,"longitude":112.738871,"phone":"08113214545"},{"sap_id":"BT08","name":"KF.0052","branch_id":45,"store_type":"BASIC_HEALTH","operational_date":"2003-01-01","address":"Jl. Raya Dukuh Kupang No. 54","zip_id":41685,"latitude":-7.282888,"longitude":112.71602,"phone":"081216863450"},{"sap_id":"BT09","name":"KF.0163","branch_id":45,"store_type":"NONE","operational_date":"2003-01-01","address":"Jl. Jokotole No. 5","zip_id":43918,"latitude":-7.028535,"longitude":112.754313,"phone":"081294970055"},{"sap_id":"BT10","name":"KF.0166","branch_id":45,"store_type":"BASIC_HEALTH","operational_date":"2003-01-01","address":"Jl. A. Yani No. 228","zip_id":41874,"latitude":-7.335556,"longitude":112.729173,"phone":"08113190166"},{"sap_id":"BT12","name":"KF.0243","branch_id":45,"store_type":"BASIC_HEALTH","operational_date":"2003-01-01","address":"Jl. Raya Arjuno No. 151","zip_id":60247,"latitude":-7.267541,"longitude":112.728725,"phone":"081110678243"},{"sap_id":"BT13","name":"KF.0274 PAMEKASAN","branch_id":45,"store_type":"NONE","operational_date":"2003-01-01","address":"Jl. Trunojoyo 92 Pamekasan","zip_id":40744,"latitude":-7.159516,"longitude":113.481658,"phone":"08113500274"},{"sap_id":"BU01","name":"KF.0008","branch_id":44,"store_type":"BASIC_HEALTH","operational_date":"2003-01-01","address":"Jl. Veteran II No. 2","zip_id":29806,"latitude":-6.919213,"longitude":106.927644,"phone":"08111169730"},{"sap_id":"BU02","name":"KF.0221","branch_id":44,"store_type":"BASIC_HEALTH","operational_date":"2003-01-01","address":"Jl. Jend. Sudirman No. 81B","zip_id":66339,"latitude":-6.919471,"longitude":106.9175601,"phone":"08111169731"},{"sap_id":"BV01","name":"KF.0140","branch_id":10,"store_type":"MEDICAL","operational_date":"2003-01-01","address":"Jl. SA Tirtayasa No. 12 C","zip_id":49556,"latitude":-6.014814,"longitude":106.047806,"phone":"087760096621"},{"sap_id":"BV02","name":"KF.0253","branch_id":10,"store_type":"MEDICAL","operational_date":"2003-01-01","address":"Jl. Yusuf Martadilaga No. 114, Benggala","zip_id":49036,"latitude":-6.121548,"longitude":106.155251,"phone":"08979743905"},{"sap_id":"BV03","name":"KF.0268 PCI","branch_id":10,"store_type":"BASIC_HEALTH","operational_date":"2003-01-01","address":"Jl. Raya Cilegon, Ruko PCI Blok A4/1","zip_id":49360,"latitude":-6.034306,"longitude":106.080885,"phone":"081110678471"},{"sap_id":"BW01","name":"KF 0003 LIPPO","branch_id":47,"store_type":"BASIC_HEALTH","operational_date":"2003-01-01","address":"Jl.Taman Permata No. 200 Pusat Perdagangan New Asia - Lippo Karawaci","zip_id":25560,"latitude":-6.2240987,"longitude":106.5730614,"phone":"081110678310"},{"sap_id":"BW02","name":"KF 0078 PASAR ANYAR","branch_id":47,"store_type":"BASIC_HEALTH","operational_date":"2003-01-01","address":"Jl. Ahmad.Yani No. 31","zip_id":50038,"latitude":-6.173401,"longitude":106.6344621,"phone":"081110678313"},{"sap_id":"BW03","name":"KF 0095 BSD","branch_id":47,"store_type":"BASIC_HEALTH","operational_date":"2003-01-01","address":"Jl. Raya Serpong Sektor VII Blok RP. 92 BSD","zip_id":49500,"latitude":-6.2824662,"longitude":106.6641308,"phone":"081110678366"},{"sap_id":"BW04","name":"KF 0115 PAMULANG","branch_id":47,"store_type":"BASIC_HEALTH","operational_date":"2003-01-01","address":"Jl. Pamulang Permai Raya No. D2./1A","zip_id":49689,"latitude":-6.343946,"longitude":106.7329702,"phone":"081197806667"},{"sap_id":"BX01","name":"KF.0021","branch_id":51,"store_type":"SUPER_STORE","operational_date":"2003-01-01","address":"Jl. Malioboro No. 123","zip_id":40107,"latitude":-7.792581,"longitude":110.365639,"phone":"082264413643"},{"sap_id":"BX03","name":"KF.0070","branch_id":51,"store_type":"SUPER_STORE","operational_date":"2003-01-01","address":"Jl. L.U. Adisucipto No. 63A","zip_id":39817,"latitude":-7.7834277,"longitude":110.3986805,"phone":"081228129992"},{"sap_id":"BX05","name":"KF.0089","branch_id":51,"store_type":"NONE","operational_date":"2003-01-01","address":"Jl. Gatot Subroto No. 59","zip_id":38021,"latitude":-7.715266,"longitude":109.015598,"phone":"08112795989"},{"sap_id":"BX08","name":"KF.0225","branch_id":51,"store_type":"HEALTH_AND_CARE","operational_date":"2003-01-01","address":"Jl.Godean kM 5 Modinan banyuraden Gamping sleman Yogyakarta","zip_id":39785,"latitude":-7.778343,"longitude":110.336906,"phone":"081128871188"},{"sap_id":"BX09","name":"KF.0275","branch_id":51,"store_type":"SUPER_STORE","operational_date":"2003-01-01","address":"Jl. Kaliurang Km 6 No. 48","zip_id":39817,"latitude":-7.752994,"longitude":110.384289,"phone":"081110678326"},{"sap_id":"BX18","name":"KF.0133 Purwokerto","branch_id":51,"store_type":"NONE","operational_date":"2003-01-01","address":"Jl. Jend. Sudirman Timur No. 435","zip_id":37367,"latitude":-7.429140303,"longitude":-7.429140303,"phone":"081110678231"},{"sap_id":"BT46","name":"KF KHM. KHOLIL BANGKALAN","branch_id":45,"store_type":"NONE","operational_date":"2003-05-05","address":"Jl. KHM. Kholil No. 102 A Bangkalan, Madura","zip_id":41587,"latitude":-7.037084,"longitude":112.741898,"phone":"082233592886"},{"sap_id":"AB05","name":"KF.0270","branch_id":2,"store_type":"BASIC_HEALTH","operational_date":"2004-01-01","address":"Jl. Sukarno Hatta KM 2,5 No. 2","zip_id":61363,"latitude":-1.227222,"longitude":116.840836,"phone":"08115961921"},{"sap_id":"AB06","name":"KF.0293","branch_id":2,"store_type":"MEDICAL","operational_date":"2004-01-01","address":"Jl. Jend. A. Yani No. 23-Karang Rejo","zip_id":61050,"latitude":-1.246392,"longitude":116.8326643,"phone":"08115962032"},{"sap_id":"AC11","name":"KF.0289","branch_id":4,"store_type":"MEDICAL","operational_date":"2004-01-01","address":"Jalan BKR no. 87, RT. 01 RW. 06","zip_id":25260,"latitude":-6.93803,"longitude":107.61486,"phone":"08112157649"},{"sap_id":"AJ01","name":"KF.0284 Narogong","branch_id":8,"store_type":"BASIC_HEALTH","operational_date":"2004-01-01","address":"Jl. Siliwangi No.45,45 A Bekas","zip_id":29830,"latitude":-6.264933,"longitude":106.995378,"phone":"085893713917"},{"sap_id":"AJ0111","name":"KF. 284 RESEP SUZ","branch_id":8,"store_type":"MEDICAL","operational_date":"2004-01-01","address":"-","zip_id":28497,"latitude":0,"longitude":0,"phone":"021"},{"sap_id":"AP15","name":"KF.0276 Manyar","branch_id":12,"store_type":"BASIC_HEALTH","operational_date":"2004-01-01","address":"Jl. Cokroaminoto. No.410","zip_id":50943,"latitude":-8.617887,"longitude":115.196083,"phone":"081138115354"},{"sap_id":"AP16","name":"KF.0286 Padang Asri","branch_id":12,"store_type":"MEDICAL","operational_date":"2004-01-01","address":"Jl.Tangkuban Perahu I No. 70","zip_id":50643,"latitude":-8.66131,"longitude":115.18104,"phone":"081138115355"},{"sap_id":"AU02","name":"KF.0288","branch_id":22,"store_type":"BASIC_HEALTH","operational_date":"2004-01-01","address":"Jl. A. Yani No. 84","zip_id":69464,"latitude":-3.987247,"longitude":122.507256,"phone":"081110678552"},{"sap_id":"AY11","name":"KF SMAN II PARE","branch_id":27,"store_type":"BASIC_HEALTH","operational_date":"2004-01-01","address":"Jl. Pahlawan Kusuma Bangsa No. 28,","zip_id":45434,"latitude":-7.759489,"longitude":112.176771,"phone":"08113279413"},{"sap_id":"BA04","name":"KF 290 Martadinata","branch_id":28,"store_type":"SUPER_STORE","operational_date":"2004-01-01","address":"Jl. R.E Martadinata No.35, Dendengan Luar","zip_id":62584,"latitude":1.487098,"longitude":124.856691,"phone":"081343865990"},{"sap_id":"AI05","name":"KF.0300","branch_id":48,"store_type":"BASIC_HEALTH","operational_date":"2005-01-01","address":"Jl. Jend. A. Yani Sungai Lakam Barat","zip_id":24885,"latitude":0.998812,"longitude":103.416059,"phone":"08117005030"},{"sap_id":"AQ12","name":"KF.0298 Benhil","branch_id":17,"store_type":"BASIC_HEALTH","operational_date":"2005-01-01","address":"Jl. Bendungan Hilir Raya No.60. Tanah Abang, Kota Jakarta Pusat. DKI Jakarta - 10270","zip_id":24988,"latitude":-6.213179,"longitude":106.812559,"phone":"081229990298"},{"sap_id":"AR14","name":"APT. KF.0295 JATIWARINGIN","branch_id":18,"store_type":"HEALTH_AND_CARE","operational_date":"2005-01-01","address":"Jl. Raya Jatiwaringin Blok H3","zip_id":25020,"latitude":-6.253005,"longitude":106.909665,"phone":"08112222278"},{"sap_id":"BC06","name":"KF.0302","branch_id":29,"store_type":"BASIC_HEALTH","operational_date":"2005-01-01","address":"Jalan jendral sudirman no 19","zip_id":46224,"latitude":-8.709915,"longitude":116.27716,"phone":"081138007806"},{"sap_id":"BC07","name":"KF.0303","branch_id":29,"store_type":"BASIC_HEALTH","operational_date":"2005-01-01","address":"Jl. Cendrawasih No. 1, BRANG BIJI","zip_id":51086,"latitude":-8.48821,"longitude":117.418182,"phone":"081138007807"},{"sap_id":"BN03","name":"KF.0145","branch_id":36,"store_type":"BASIC_HEALTH","operational_date":"2005-01-01","address":"Jl. Sultan Agung No.99","zip_id":34781,"latitude":-6.884412,"longitude":109.136151,"phone":"08112608916"},{"sap_id":"BT11","name":"KF.0175","branch_id":45,"store_type":"BASIC_HEALTH","operational_date":"2005-01-01","address":"Jl. Karangmenjangan No. 9","zip_id":35969,"latitude":-7.2667394,"longitude":112.7612327,"phone":"085158050175"},{"sap_id":"BT14","name":"KF.0304","branch_id":45,"store_type":"BASIC_HEALTH","operational_date":"2005-01-01","address":"Jl. Perak Timur No. 166","zip_id":45631,"latitude":-7.223227,"longitude":112.732499,"phone":"08994000304"},{"sap_id":"BX07","name":"KF.0207","branch_id":51,"store_type":"HEALTH_AND_CARE","operational_date":"2005-01-01","address":"Jl. Parangtritis No. 130","zip_id":39953,"latitude":-7.822994,"longitude":110.367626,"phone":"081110678238"},{"sap_id":"BG04","name":"KF.0299","branch_id":16,"store_type":"MEDICAL","operational_date":"2005-07-01","address":"Jl. R. Mattaher No.40","zip_id":13355,"latitude":-1.5941569,"longitude":103.6142818,"phone":"081110678493"},{"sap_id":"BX04","name":"KF.0088","branch_id":51,"store_type":"BASIC_HEALTH","operational_date":"2005-08-15","address":"Jl. Pemuda Selatan No. 12","zip_id":22503,"latitude":-7.707884,"longitude":110.598033,"phone":"081110678239"},{"sap_id":"AB04","name":"KF.0158 Markoni","branch_id":2,"store_type":"BASIC_HEALTH","operational_date":"2006-01-01","address":"Jl. Jend. Sudirman RT 51 No. 33 Markoni","zip_id":61096,"latitude":-1.27518,"longitude":116.847881,"phone":"081110678423"},{"sap_id":"AM01","name":"KF.0143","branch_id":13,"store_type":"HEALTH_AND_CARE","operational_date":"2006-01-01","address":"Jl. Margonda Raya No. 154A","zip_id":27962,"latitude":-6.388452,"longitude":106.826727,"phone":"081110678334"},{"sap_id":"AR05","name":"APT. KF.0004 RAWAMANGUN","branch_id":18,"store_type":"MEDICAL","operational_date":"2006-01-01","address":"Jl. Pegambiran No. 33 C, RT 09, RW 08, Rawamangun, Pulogadung, Jakarta Timur, DKI Jakarta","zip_id":25200,"latitude":-6.199403,"longitude":106.889917,"phone":"08112222704"},{"sap_id":"AR21","name":"APT. KF.MENTENG HUIS","branch_id":18,"store_type":"MEDICAL","operational_date":"2006-01-01","address":"Jl. Cikini Raya No. 2","zip_id":25006,"latitude":-6.187611,"longitude":106.836483,"phone":"08112221906"},{"sap_id":"AR2101","name":"Klinik - KF Menteng Huis","branch_id":18,"store_type":"NULL","operational_date":"2006-01-01","address":"Jl. Cikini Raya No. 2","zip_id":25138,"latitude":0,"longitude":0,"phone":""},{"sap_id":"AX05","name":"KF Gelora","branch_id":26,"store_type":"MEDICAL","operational_date":"2006-01-01","address":"Jl. Pettanarajeng 5","zip_id":67155,"latitude":-4.015032,"longitude":119.622223,"phone":"08114147234"},{"sap_id":"AZ01","name":"KF.0251","branch_id":14,"store_type":"BASIC_HEALTH","operational_date":"2006-01-01","address":"Jl. A. Yani No. 25","zip_id":71506,"latitude":0.539828338,"longitude":123.0607698,"phone":"081110678519"},{"sap_id":"BA05","name":"KF.0309","branch_id":28,"store_type":"MEDICAL","operational_date":"2006-01-01","address":"JL.B.W. LAPIAN NO.54","zip_id":63824,"latitude":1.483049,"longitude":124.847027,"phone":"085394307244"},{"sap_id":"BG02","name":"KF.0208","branch_id":16,"store_type":"NULL","operational_date":"2006-01-01","address":"jln. Sultan agung Rt.10","zip_id":16711,"latitude":0,"longitude":0,"phone":0},{"sap_id":"BP05","name":"KF.0212 Sragen","branch_id":46,"store_type":"SUPER_STORE","operational_date":"2006-01-01","address":"Jl. Raya Sukowati No. 440 A","zip_id":38370,"latitude":-7.424075,"longitude":111.031663,"phone":"081110678136"},{"sap_id":"BW05","name":"KF 0278 VERSAILES","branch_id":47,"store_type":"BASIC_HEALTH","operational_date":"2006-01-01","address":"Jl. Griya Loka, Ruko Versailes FB No. 15 Sektor 1.6","zip_id":49890,"latitude":-6.307686,"longitude":106.673771,"phone":"08118470278"},{"sap_id":"AE02","name":"KF.0308","branch_id":49,"store_type":"BASIC_HEALTH","operational_date":"2007-01-01","address":"Jl. Cimanuk No. 619","zip_id":30182,"latitude":-7.202565,"longitude":107.889446,"phone":"081110678142"},{"sap_id":"AT05","name":"KF.0307","branch_id":20,"store_type":"HEALTH_AND_CARE","operational_date":"2007-01-01","address":"Jl. Ahmad Yani No. 40B Penganjuran, Banyuwangi","zip_id":45610,"latitude":-8.217613996,"longitude":114.369262,"phone":"081110678567"},{"sap_id":"AU06","name":"KF.Pel071 RSAD dr. Ismoyo","branch_id":22,"store_type":"BASIC_HEALTH","operational_date":"2007-01-01","address":"Jl. Laute No. 1","zip_id":70049,"latitude":-3.969647,"longitude":122.515503,"phone":"085320880938"},{"sap_id":"AW05","name":"KF.0318 KMC","branch_id":24,"store_type":"BASIC_HEALTH","operational_date":"2007-01-01","address":"Jl. ZA. Pagar Alam No. 77","zip_id":22102,"latitude":-5.374105,"longitude":105.242062,"phone":"081110678130"},{"sap_id":"BD11","name":"KF.0312 Prapat","branch_id":30,"store_type":"MEDICAL","operational_date":"2007-01-01","address":"Jl. A Yani No. 128","zip_id":8378,"latitude":2.095863,"longitude":99.833733,"phone":"081110678247"},{"sap_id":"BD12","name":"KF.0315 Sipuan","branch_id":30,"store_type":"MEDICAL","operational_date":"2007-01-01","address":"Jl. Merdeka No. 5 P.Sidempuan","zip_id":12390,"latitude":1.377125,"longitude":99.271483,"phone":"081110678206"},{"sap_id":"BI01","name":"KF.0328 Megatama","branch_id":35,"store_type":"MEDICAL","operational_date":"2007-01-01","address":"Jl. Palola Ruko No. 3","zip_id":64450,"latitude":-0.901384,"longitude":119.847387,"phone":"082194840184"},{"sap_id":"BO14","name":"KF.0324","branch_id":41,"store_type":"BASIC_HEALTH","operational_date":"2007-01-01","address":"Jl. Raya Ngaliyan No. 1B","zip_id":38717,"latitude":-6.991996,"longitude":110.352912,"phone":"08112922314"},{"sap_id":"BS02","name":"KF.0119 Sidoarjo","branch_id":42,"store_type":"HEALTH_AND_CARE","operational_date":"2007-01-01","address":"Jl. Deltasari Blok AN No. 11","zip_id":43997,"latitude":-7.364575,"longitude":112.7341,"phone":"08113334119"},{"sap_id":"BU03","name":"KF.0317","branch_id":44,"store_type":"HEALTH_AND_CARE","operational_date":"2007-01-01","address":"Jl. Dr. Muardi No.150E","zip_id":25631,"latitude":-6.813278,"longitude":107.136892,"phone":"081110678556"},{"sap_id":"BX10","name":"KF.0316","branch_id":51,"store_type":"HEALTH_AND_CARE","operational_date":"2007-01-01","address":"Jl. Palagan Tentara Pelajar No. 72","zip_id":40060,"latitude":-7.744458,"longitude":110.373695,"phone":"08112994393"},{"sap_id":"BX11","name":"KF.0334 UNY","branch_id":51,"store_type":"BASIC_HEALTH","operational_date":"2007-01-01","address":"Jl. Colombo No. 1","zip_id":39817,"latitude":-7.777512,"longitude":110.387849,"phone":"081110678220"},{"sap_id":"AB07","name":"KF.0329","branch_id":2,"store_type":"MEDICAL","operational_date":"2008-01-01","address":"Jl. Soekarno Hatta KM 5 No. 86","zip_id":60970,"latitude":-1.213002,"longitude":116.85836,"phone":"08115961987"},{"sap_id":"AC12","name":"KF.0319","branch_id":4,"store_type":"SUPER_STORE","operational_date":"2008-01-01","address":"Jl. Raya Venus No.27, Metro Marga Rahayu","zip_id":28471,"latitude":-6.941502,"longitude":107.667472,"phone":"08112157650"},{"sap_id":"AC13","name":"KF.0320 Amanah","branch_id":4,"store_type":"SUPER_STORE","operational_date":"2008-01-01","address":"Jl. Raya Cinunuk No. 192","zip_id":26599,"latitude":-6.936844,"longitude":107.730057,"phone":"08112157651"},{"sap_id":"AG07","name":"KF.0336 Antasari","branch_id":6,"store_type":"MEDICAL","operational_date":"2008-01-01","address":"Jl. Pangeran Antasari No. 91","zip_id":59491,"latitude":-3.327803,"longitude":114.605813,"phone":"08115137816"},{"sap_id":"AJ02","name":"KF.0330 Harapan Indah","branch_id":8,"store_type":"BASIC_HEALTH","operational_date":"2008-01-01","address":"Jl. Jl. Boulevard Hijau Blok B","zip_id":4702,"latitude":-6.185959,"longitude":106.979248,"phone":"081240006150"},{"sap_id":"AW06","name":"KF.0327 Anda","branch_id":24,"store_type":"BASIC_HEALTH","operational_date":"2008-01-01","address":"Jl. Gatot Subroto No. 5A","zip_id":19802,"latitude":-5.422953,"longitude":105.272363,"phone":"081110678113"},{"sap_id":"AY05","name":"KF.0116","branch_id":27,"store_type":"BASIC_HEALTH","operational_date":"2008-01-01","address":"Jl. Laksda Adi Sucipto No.148","zip_id":31817,"latitude":-7.944032,"longitude":112.64853,"phone":"08113279401"},{"sap_id":"BA06","name":"KF.0331 Malalayang","branch_id":28,"store_type":"HEALTH_AND_CARE","operational_date":"2008-01-01","address":"Jl. Wolter Monginsidi No. 24 M","zip_id":62339,"latitude":1.460867,"longitude":124.823316,"phone":"082154323235"},{"sap_id":"BA07","name":"KF.0332","branch_id":28,"store_type":"BASIC_HEALTH","operational_date":"2008-01-01","address":"Jl. Sam Ratulangi No. 388","zip_id":63996,"latitude":1.465001,"longitude":124.839701,"phone":"082196161406"},{"sap_id":"BK02","name":"KF 333 Ayani 2","branch_id":38,"store_type":"BASIC_HEALTH","operational_date":"2008-01-01","address":"Jl. Ahmad Yani 2 No.8D/8E Kel. Sungai Raya Kec. Sungai Raya Kab. Kuburaya","zip_id":56962,"latitude":-0.087045,"longitude":109.369342,"phone":"081110678217"},{"sap_id":"BN06","name":"KF.0323","branch_id":36,"store_type":"HEALTH_AND_CARE","operational_date":"2008-01-01","address":"Jl. Urip Sumoharjo No.61","zip_id":37109,"latitude":-6.9028,"longitude":109.6642,"phone":"08112608918"},{"sap_id":"BP08","name":"KF.0326 Veteran","branch_id":46,"store_type":"BASIC_HEALTH","operational_date":"2008-01-01","address":"Jl. Veteran No. 25 C","zip_id":33646,"latitude":-7.584205868,"longitude":110.8281678,"phone":"081110678137"},{"sap_id":"BR02","name":"KF.0321","branch_id":15,"store_type":"BASIC_HEALTH","operational_date":"2008-01-01","address":"Jl. Lamongrejo No. 125","zip_id":46759,"latitude":-7.1130403,"longitude":112.4172092,"phone":"081110678509"},{"sap_id":"BU04","name":"KF.0335 Cicurug","branch_id":44,"store_type":"HEALTH_AND_CARE","operational_date":"2008-01-01","address":"Jl. Siliwangi No. 416","zip_id":26068,"latitude":-6.779926,"longitude":106.784035,"phone":"08111169732"},{"sap_id":"AB08","name":"KF.0349","branch_id":2,"store_type":"BASIC_HEALTH","operational_date":"2009-01-01","address":"Jl. Komplek Balikpapan Baru Blok C 7-8","zip_id":60972,"latitude":-1.238986,"longitude":116.871103,"phone":"08115962749"},{"sap_id":"AC14","name":"KF.0355 Pasteur","branch_id":4,"store_type":"MEDICAL","operational_date":"2009-01-01","address":"Jl. Lemah Neundeut No. 1E","zip_id":30622,"latitude":-6.882676,"longitude":107.580994,"phone":"08112157652"},{"sap_id":"AC15","name":"KF.0356","branch_id":4,"store_type":"SUPER_STORE","operational_date":"2009-01-01","address":"Jl. Banteng No.96","zip_id":31013,"latitude":-6.933908,"longitude":107.6225747,"phone":"08112157653"},{"sap_id":"AC16","name":"KF.0360","branch_id":4,"store_type":"SUPER_STORE","operational_date":"2009-01-01","address":"Jl. Prabu Geusan Ulun No.82 Sumedang","zip_id":29651,"latitude":-6.856398,"longitude":107.921927,"phone":"08112157654"},{"sap_id":"AJ03","name":"KF.0340 Cikarang","branch_id":8,"store_type":"BASIC_HEALTH","operational_date":"2009-01-01","address":"Jl. Kedasih Raya No. 112, Jaba","zip_id":28650,"latitude":-6.299775,"longitude":107.160857,"phone":"082130345119"},{"sap_id":"AJ0311","name":"KF. 340 RESEP UNI","branch_id":8,"store_type":"MEDICAL","operational_date":"2009-01-01","address":"-","zip_id":30926,"latitude":0,"longitude":0,"phone":0},{"sap_id":"AJ04","name":"KF.0347 Pekayon","branch_id":8,"store_type":"BASIC_HEALTH","operational_date":"2009-01-01","address":"Jl. Jaka Setia Ruko Pekayon ka","zip_id":27354,"latitude":-6.274492,"longitude":106.977326,"phone":"081110678475"},{"sap_id":"AJ05","name":"KF.0367 Jati Asih","branch_id":8,"store_type":"BASIC_HEALTH","operational_date":"2009-01-01","address":"Jl. Jati Mekar No.3A Jati Asih","zip_id":27398,"latitude":-6.287523,"longitude":106.952997,"phone":"08118840367"},{"sap_id":"AK01","name":"KF.0343 Kertabumi","branch_id":21,"store_type":"BASIC_HEALTH","operational_date":"2009-01-01","address":"Jl. Kertabumi No. 12A","zip_id":27826,"latitude":-6.307838,"longitude":107.292798,"phone":"081284182306"},{"sap_id":"AL05","name":"KF.0348 Dramaga","branch_id":9,"store_type":"BASIC_HEALTH","operational_date":"2009-01-01","address":"Jl. Dramaga KM 8","zip_id":25328,"latitude":-6.56669,"longitude":106.73614,"phone":"08811037001"},{"sap_id":"AL06","name":"KF.0362","branch_id":9,"store_type":"BASIC_HEALTH","operational_date":"2009-01-01","address":"Jl. Mayor Oking No.112C","zip_id":26757,"latitude":-6.4717628,"longitude":106.8625962,"phone":"087809281811"},{"sap_id":"AM03","name":"KF.0352 Margonda","branch_id":13,"store_type":"BASIC_HEALTH","operational_date":"2009-01-01","address":"Jl. Margonda Raya No. 326","zip_id":27962,"latitude":-6.3755,"longitude":106.832461,"phone":"081110678325"},{"sap_id":"AN03","name":"KF.0357","branch_id":11,"store_type":"MEDICAL","operational_date":"2009-01-01","address":"Jl. Siliwangi No. 119","zip_id":27906,"latitude":-6.70719,"longitude":108.558828,"phone":"081110678464"},{"sap_id":"AQ10","name":"KF.0364 Cilandak KKO","branch_id":17,"store_type":"MEDICAL","operational_date":"2009-01-01","address":"Jl. Cilandak KKO No. 7 RT.04 RW 05, Ragunan","zip_id":25191,"latitude":-6.295584,"longitude":106.81565,"phone":"081219400280"},{"sap_id":"AR01","name":"APT. KF.0345 TEBET","branch_id":18,"store_type":"MEDICAL","operational_date":"2009-01-01","address":"Jl. Prof. Soepomo No. 45 BZ","zip_id":25233,"latitude":-6.239565,"longitude":106.845725,"phone":"08112222695"},{"sap_id":"AR15","name":"APT. KF.0346 PONDOK KELAPA","branch_id":18,"store_type":"HEALTH_AND_CARE","operational_date":"2009-01-01","address":"Jl. Pondok Kelapa Raya Blok I-14 No.1B-1C, Kec. Duren Sawit, Jakarta Timur, DKI Jakarta, 13450","zip_id":25177,"latitude":-6.237681,"longitude":106.934125,"phone":"08112221836"},{"sap_id":"AR16","name":"APT. KF.0350 KELAPA GADING","branch_id":18,"store_type":"MEDICAL","operational_date":"2009-01-01","address":"Jl. Kelapa Gading Boulevard J4","zip_id":25103,"latitude":-6.17027,"longitude":106.899579,"phone":"08112222750"},{"sap_id":"AR17","name":"APT. KF.0359 JOHAR","branch_id":18,"store_type":"NONE","operational_date":"2009-01-01","address":"Jl. Percetakan Negara II Blok B No 12, Johar Baru Jakarta Selatan, DKI Jakarta, 10560","zip_id":25061,"latitude":-6.185045,"longitude":106.855894,"phone":"0811222351"},{"sap_id":"AU03","name":"KF.0338","branch_id":22,"store_type":"BASIC_HEALTH","operational_date":"2009-01-01","address":"Jl. Betoambari. No.4","zip_id":69869,"latitude":-5.4621158,"longitude":122.5993157,"phone":"081110678527"},{"sap_id":"BM08","name":"KF Bung Tomo (KF 354)","branch_id":40,"store_type":"HEALTH_AND_CARE","operational_date":"2009-01-01","address":"Jl. Bung Tomo No. 50","zip_id":61571,"latitude":-0.514783,"longitude":117.127877,"phone":"08115583908"},{"sap_id":"BM09","name":"KF A. Yani Btg (KF 361)","branch_id":40,"store_type":"HEALTH_AND_CARE","operational_date":"2009-01-01","address":"Jl. Ahmad Yani No. 37","zip_id":60804,"latitude":0.132577,"longitude":117.488599,"phone":"08115583909"},{"sap_id":"BU05","name":"KF.0351 Cibadak","branch_id":44,"store_type":"NONE","operational_date":"2009-01-01","address":"Jl. Siliwangi No. 70","zip_id":25870,"latitude":-6.894348,"longitude":106.793093,"phone":"08111169734"},{"sap_id":"AA07","name":"KF.0397 Sigli","branch_id":3,"store_type":"BASIC_HEALTH","operational_date":"2010-01-01","address":"Jl. Perdagangan No. 1","zip_id":2388,"latitude":5.3845625,"longitude":95.9603125,"phone":"081110678397"},{"sap_id":"AB09","name":"KF.0379 Pasar Baru","branch_id":2,"store_type":"BASIC_HEALTH","operational_date":"2010-01-01","address":"Jl. Jend Sudirman No.20A Pasar Baru","zip_id":61096,"latitude":-1.276723,"longitude":116.839731,"phone":"08115962062"},{"sap_id":"AC17","name":"KF.0380 antapani","branch_id":4,"store_type":"SUPER_STORE","operational_date":"2010-01-01","address":"Jl. Terusan Jakarta No.341","zip_id":25277,"latitude":-6.9152257,"longitude":107.6671725,"phone":"08112157655"},{"sap_id":"AE03","name":"KF.0377 Garut 2","branch_id":49,"store_type":"BASIC_HEALTH","operational_date":"2010-01-01","address":"Jl. Cimanuk No.11A","zip_id":29103,"latitude":-7.216615,"longitude":107.89948,"phone":"081110678149"},{"sap_id":"AG08","name":"KF 383 S.Parman-2","branch_id":6,"store_type":"NONE","operational_date":"2010-01-01","address":"Jalan S.Parman No.161 RT 01/001","zip_id":60686,"latitude":-3.30455,"longitude":114.58785,"phone":"08115137817"},{"sap_id":"AJ06","name":"KF.0387 Pondok Gede","branch_id":8,"store_type":"HEALTH_AND_CARE","operational_date":"2010-01-01","address":"Jl. Raya Jatiwaringin No. 5 Po","zip_id":27482,"latitude":-6.276763,"longitude":106.912862,"phone":"08111460387"},{"sap_id":"AK02","name":"KF.0368 Galuh","branch_id":21,"store_type":"BASIC_HEALTH","operational_date":"2010-01-01","address":"Jl. Galuh Mas Kompl.Ruko Acadi","zip_id":30200,"latitude":-6.320968,"longitude":107.29176,"phone":"085161789944"},{"sap_id":"AM04","name":"KF.0366 Maharaja","branch_id":13,"store_type":"BASIC_HEALTH","operational_date":"2010-01-01","address":"Ruko Maharaja Blok A1/03 Rt 001/002","zip_id":8962,"latitude":-6.394824,"longitude":106.794152,"phone":"081110678336"},{"sap_id":"AM05","name":"KF.0375 Kartini","branch_id":13,"store_type":"NONE","operational_date":"2010-01-01","address":"Jl. Raya Citayam RT 001 RW 002","zip_id":29136,"latitude":-6.406097,"longitude":106.819013,"phone":"081110678337"},{"sap_id":"AM06","name":"KF.0382 K2","branch_id":13,"store_type":"BASIC_HEALTH","operational_date":"2010-01-01","address":"Jl. Akses UI No.45C","zip_id":39316,"latitude":-6.354643,"longitude":106.845539,"phone":"081110678339"},{"sap_id":"AN04","name":"KF.0369 Tuparev","branch_id":11,"store_type":"MEDICAL","operational_date":"2010-01-01","address":"Jl. Tuparev No. 85 F","zip_id":30699,"latitude":-6.711283,"longitude":108.542173,"phone":"081110678465"},{"sap_id":"AQ13","name":"KF.0219 St Gintung","branch_id":17,"store_type":"HEALTH_AND_CARE","operational_date":"2010-01-01","address":"Jl. Ir. H. Juanda No. 111 A","zip_id":22014,"latitude":-6.3052446,"longitude":106.7576303,"phone":"087771236790"},{"sap_id":"AR0902","name":"Optik KF.Angkasa Pura II","branch_id":18,"store_type":"NULL","operational_date":"2010-01-01","address":"Jl. Bandara Soekarno Hatta, Gedung 600 Kantor Pusat Bandara Seokarno Hatta","zip_id":48835,"latitude":0,"longitude":0,"phone":"0215507981"},{"sap_id":"AR1002","name":"Optik - KF.0049 - Optik","branch_id":18,"store_type":"NULL","operational_date":"2010-01-01","address":"Jl. Pahlawan Revolusi No. 53","zip_id":25176,"latitude":0,"longitude":0,"phone":""},{"sap_id":"AR18","name":"APT. KF.0399 KEBON BAWANG","branch_id":18,"store_type":"BASIC_HEALTH","operational_date":"2010-01-01","address":"Jl. Bugis No. 25 C","zip_id":25088,"latitude":-6.115826,"longitude":106.88635,"phone":"08112221939"},{"sap_id":"AR1902","name":"OPTIK  KF.450 CIBUBUR LT","branch_id":18,"store_type":"NULL","operational_date":"2010-01-01","address":"Jl. Lawu B1 No.01","zip_id":25002,"latitude":0,"longitude":0,"phone":""},{"sap_id":"BE04","name":"KF.0372","branch_id":32,"store_type":"BASIC_HEALTH","operational_date":"2010-01-01","address":"Jl. Jendral Sudirman No. 8 Payakumbuh Utara","zip_id":12778,"latitude":-0.223447,"longitude":100.632851,"phone":"082174846240"},{"sap_id":"BK03","name":"KF.0371","branch_id":38,"store_type":"BASIC_HEALTH","operational_date":"2010-01-01","address":"Jl. A Yani No. 5","zip_id":55317,"latitude":-0.062463,"longitude":109.355749,"phone":"0817880371"},{"sap_id":"BO15","name":"KF.0374","branch_id":41,"store_type":"BASIC_HEALTH","operational_date":"2010-01-01","address":"Jl. Rsu No. 13","zip_id":32277,"latitude":-7.147903,"longitude":111.593742,"phone":"08112922315"},{"sap_id":"BU06","name":"KF.0365 Selokopi","branch_id":44,"store_type":"BASIC_HEALTH","operational_date":"2010-01-01","address":"Jl. Ir. H. Juanda No. 15 Rt 01/13 Kel. Pamoyanan","zip_id":29106,"latitude":-6.817529,"longitude":107.136425,"phone":"08111169735"},{"sap_id":"AO07","name":"KF.0376 Tj. Benoa","branch_id":31,"store_type":"SUPER_STORE","operational_date":"2010-03-01","address":"Jl. Pratama No.79A Lingkungan Banjar Terora, Benoa","zip_id":50354,"latitude":-8.774458,"longitude":115.222642,"phone":"081110678092"},{"sap_id":"BF05","name":"KF.0373","branch_id":33,"store_type":"BASIC_HEALTH","operational_date":"2010-03-15","address":"Jl. Rajawali KM. 4.5 Gg Patin No. 1","zip_id":57444,"latitude":-2.185479,"longitude":113.886434,"phone":"082254283108"},{"sap_id":"AO08","name":"KF.0384 BERAWA","branch_id":31,"store_type":"BASIC_HEALTH","operational_date":"2010-08-01","address":"Jl. Raya legian No.139","zip_id":50909,"latitude":-8.658641,"longitude":115.139917,"phone":"082114696984"},{"sap_id":"BM10","name":"KF Diponogoro (KF 378)","branch_id":40,"store_type":"MEDICAL","operational_date":"2010-08-01","address":"Jl. Diponegoro No. 68","zip_id":61428,"latitude":-0.500738,"longitude":117.151797,"phone":"08115583910"},{"sap_id":"AA08","name":"KF.0402 Lamprit","branch_id":3,"store_type":"BASIC_HEALTH","operational_date":"2011-01-01","address":"Jl. Tgk Daud Beureueh No. 167","zip_id":516,"latitude":5.563752,"longitude":95.335159,"phone":"081110678297"},{"sap_id":"AA09","name":"KF.0403 Bireun","branch_id":3,"store_type":"MEDICAL","operational_date":"2011-01-01","address":"Jl. T. Hamzah Bendahara No. 19","zip_id":731,"latitude":5.204031,"longitude":96.6995458,"phone":"082274479004"},{"sap_id":"AE04","name":"KF.0404 Tasik 2","branch_id":49,"store_type":"BASIC_HEALTH","operational_date":"2011-01-01","address":"Jl. RE. Martadinata No.87","zip_id":26677,"latitude":-7.315165,"longitude":108.21476,"phone":"082315916229"},{"sap_id":"AJ07","name":"KF.0400 Galaxy","branch_id":8,"store_type":"HEALTH_AND_CARE","operational_date":"2011-01-01","address":"Jl. Taman Galaxy Raya Blok A3","zip_id":27354,"latitude":-6.255305,"longitude":106.968467,"phone":"081110678400"},{"sap_id":"AM07","name":"KF.0389","branch_id":13,"store_type":"BASIC_HEALTH","operational_date":"2011-01-01","address":"Jl. Nusantara Raya No. 33","zip_id":26975,"latitude":-6.397878,"longitude":106.81376,"phone":"081110678340"},{"sap_id":"AM08","name":"KF.0391","branch_id":13,"store_type":"HEALTH_AND_CARE","operational_date":"2011-01-01","address":"Jl. Kemakmuran Raya No.8 RT 001 RW 001","zip_id":20729,"latitude":-6.400468,"longitude":106.836453,"phone":"081110678341"},{"sap_id":"AM09","name":"KF 0394 Melati","branch_id":13,"store_type":"NONE","operational_date":"2011-01-01","address":"Jl. Melati No.14, RT.004/RW.010, Depok, Kec. Pancoran Mas, Kota Depok, Jawa Barat","zip_id":26980,"latitude":-6.399471,"longitude":106.821284,"phone":"081110678394"},{"sap_id":"AY12","name":"KF.0392 Tulung Agung","branch_id":27,"store_type":"BASIC_HEALTH","operational_date":"2011-01-01","address":"Jl. I.G.Ngurah Rai No.10","zip_id":40361,"latitude":-8.065994,"longitude":111.906996,"phone":"081110678248"},{"sap_id":"BA08","name":"KF.0396 Tuminting","branch_id":28,"store_type":"MEDICAL","operational_date":"2011-01-01","address":"Jl. Hasanuddin No. 137","zip_id":62669,"latitude":1.506677,"longitude":124.845966,"phone":"082196656448"},{"sap_id":"BE05","name":"KF.0386","branch_id":32,"store_type":"BASIC_HEALTH","operational_date":"2011-01-01","address":"Jl. S. Parman No.161","zip_id":13543,"latitude":-0.913799,"longitude":100.349907,"phone":"081110678547"},{"sap_id":"BI02","name":"KF.0390","branch_id":35,"store_type":"BASIC_HEALTH","operational_date":"2011-01-01","address":"Jl. Setiabudi No. 65 D","zip_id":64246,"latitude":-0.8896,"longitude":119.8785,"phone":"085242095350"},{"sap_id":"BM11","name":"KF PMI (KF 385)","branch_id":40,"store_type":"SUPER_STORE","operational_date":"2011-01-01","address":"Jl. Palang Merah Indonesia No.25 Sidodadi, Samarinda Ulu","zip_id":23356,"latitude":-0.4786521,"longitude":117.1433891,"phone":"08115583911"},{"sap_id":"BX12","name":"KF.0401 Seturan","branch_id":51,"store_type":"BASIC_HEALTH","operational_date":"2011-01-01","address":"Jl. Seturan Raya Blok C/3B","zip_id":39817,"latitude":-7.769531,"longitude":110.409782,"phone":"081110678229"},{"sap_id":"AC18","name":"KF.0405 Subang","branch_id":4,"store_type":"SUPER_STORE","operational_date":"2011-07-01","address":"Jl. Otista No. 199","zip_id":34112,"latitude":-6.557513,"longitude":107.772009,"phone":"08112157656"},{"sap_id":"AX07","name":"KF.0410 Boulevard","branch_id":26,"store_type":"BASIC_HEALTH","operational_date":"2012-01-01","address":"Jl. Boulevard komplek Ruby No. 17","zip_id":67633,"latitude":-5.155371,"longitude":119.442026,"phone":"08114146234"},{"sap_id":"BA09","name":"KF.0411 Telling","branch_id":28,"store_type":"HEALTH_AND_CARE","operational_date":"2012-01-01","address":"Jl. 14 Februari No. 38","zip_id":63800,"latitude":1.473763,"longitude":124.844484,"phone":"081110678295"},{"sap_id":"BJ04","name":"KF.0393 Panam","branch_id":37,"store_type":"MEDICAL","operational_date":"2012-01-01","address":"Jl. HR Subrantas No. 99","zip_id":14904,"latitude":0.464405,"longitude":101.40166,"phone":"081110678153"},{"sap_id":"BJ05","name":"KF.0395 Melur","branch_id":37,"store_type":"NONE","operational_date":"2012-01-01","address":"Jl. Melur No. 4","zip_id":33247,"latitude":0.52814,"longitude":101.434255,"phone":"081267922204"},{"sap_id":"BT15","name":"KF.0407 MULYO","branch_id":45,"store_type":"BASIC_HEALTH","operational_date":"2012-01-01","address":"Jl. Mulyosari No. 157","zip_id":42774,"latitude":-7.269606,"longitude":112.796761,"phone":"082320866626"},{"sap_id":"BT16","name":"KF.0419 Trunojoyo","branch_id":45,"store_type":"NONE","operational_date":"2012-01-01","address":"Jl. Trunojoyo No.75A Bangkalan","zip_id":45538,"latitude":-7.027838,"longitude":112.756417,"phone":"081110678214"},{"sap_id":"BU07","name":"KF 0408 Ciamacan","branch_id":44,"store_type":"BASIC_HEALTH","operational_date":"2012-01-01","address":"Jl. Raya Cipanas - Cimacan Cianjur","zip_id":29065,"latitude":-6.7189197,"longitude":107.0313202,"phone":"081110678303"},{"sap_id":"BX13","name":"KF.0406 Jamal","branch_id":51,"store_type":"BASIC_HEALTH","operational_date":"2012-01-01","address":"Jl. Magelang No. 80","zip_id":34443,"latitude":-7.777118,"longitude":110.361175,"phone":"081110678225"},{"sap_id":"BX14","name":"KF 0416","branch_id":51,"store_type":"BASIC_HEALTH","operational_date":"2012-01-01","address":"Jl. Taman Siswa No. 100, Wirogunan","zip_id":40187,"latitude":-7.809899,"longitude":110.377022,"phone":"081110678226"},{"sap_id":"AO09","name":"KF.0412 Dsix","branch_id":31,"store_type":"BASIC_HEALTH","operational_date":"2012-05-01","address":"Jl. Raya Legian No.154 Seminya","zip_id":50804,"latitude":-8.697011,"longitude":115.168741,"phone":"081339200021"},{"sap_id":"AH12","name":"KF.0413 Botania","branch_id":7,"store_type":"HEALTH_AND_CARE","operational_date":"2012-06-01","address":"Komplek Ruko Botania Garden Blok A1 No. 1 C","zip_id":24607,"latitude":1.127744,"longitude":104.099573,"phone":"085175099619"},{"sap_id":"AO10","name":"KF.0415 Petitenget","branch_id":31,"store_type":"BASIC_HEALTH","operational_date":"2012-07-01","address":"Jl. Petitenget No.7 Kerobokan","zip_id":50533,"latitude":-8.673028,"longitude":115.158976,"phone":"081337880952"},{"sap_id":"AP17","name":"KF.0414 Gunung Agung","branch_id":12,"store_type":"MEDICAL","operational_date":"2012-07-01","address":"Jl. Gunung Agung No. 88","zip_id":50685,"latitude":-8.652366,"longitude":115.201543,"phone":"081138115356"},{"sap_id":"BP10","name":"KF.0418 Ngawi","branch_id":46,"store_type":"MEDICAL","operational_date":"2012-08-01","address":"Jl. Dr. Wahidin No.46","zip_id":43688,"latitude":-7.393039,"longitude":111.445892,"phone":"081110678145"},{"sap_id":"BP09","name":"KF.0417 Madiun","branch_id":46,"store_type":"MEDICAL","operational_date":"2012-09-01","address":"Jl. Kol. Mahardi No.59","zip_id":35991,"latitude":-7.632583,"longitude":111.533485,"phone":"081110678144"},{"sap_id":"BP11","name":"KF.0420 Kartosuro","branch_id":46,"store_type":"BASIC_HEALTH","operational_date":"2012-09-01","address":"Jl. Adi Sumarmo No. 114","zip_id":38215,"latitude":-7.544646,"longitude":110.744533,"phone":"081110678138"},{"sap_id":"AN05","name":"KF.0422 Sumber","branch_id":11,"store_type":"BASIC_HEALTH","operational_date":"2012-10-01","address":"Jl. Dewi Sartika No. 36 Sumber","zip_id":31008,"latitude":-6.7586629,"longitude":108.4759204,"phone":"081110678378"},{"sap_id":"AB10","name":"KF.0426 Guntur","branch_id":2,"store_type":"BASIC_HEALTH","operational_date":"2012-11-01","address":"Jl. DI Panjaitan No. 2 Gunung Guntur","zip_id":60985,"latitude":-1.254035,"longitude":116.843944,"phone":"08115962059"},{"sap_id":"AB11","name":"KF.0425 Sepinggan","branch_id":2,"store_type":"BASIC_HEALTH","operational_date":"2012-11-01","address":"Jl. M.R Iswahyudi No.702 Sepinggan","zip_id":61623,"latitude":-1.257821,"longitude":116.9077688,"phone":"081110678369"},{"sap_id":"AO11","name":"KF.0424 Jimbaran","branch_id":31,"store_type":"MEDICAL","operational_date":"2012-12-01","address":"Jl. Bukit Permai ,Ling Pesalak","zip_id":33559,"latitude":-8.783456,"longitude":115.166439,"phone":"081139607714"},